City_ID,City,Lat,Lng,Max Temp,Humidity,Cloudiness,Wind Speed,Country,Date
0,playa blanca,28.8643,-13.8281,25.11,76,60,3.85,ES,1698597669
1,port-aux-francais,-49.35,70.2167,1.87,98,100,8.95,TF,1698597669
2,piti village,13.4626,144.6933,28.03,89,0,2.57,GU,1698597670
3,edinburgh of the seven seas,-37.0676,-12.3116,11.16,66,21,11.45,SH,1698597672
4,qaqortoq,60.7167,-46.0333,3.97,63,100,3.95,GL,1698597672
5,lihue,21.9789,-159.3672,21.77,88,40,3.6,US,1698597415
6,siran,40.1894,39.1267,14.24,56,93,1.37,TR,1698597674
7,longyearbyen,78.2186,15.6401,-3.09,86,75,2.57,SJ,1698597674
8,lompoc,34.6391,-120.4579,21.62,65,0,4.12,US,1698597557
9,mansa,29.9833,75.3833,24.05,29,0,1.27,IN,1698597676
10,bredasdorp,-34.5322,20.0403,13.81,57,2,9.21,ZA,1698597678
11,hermanus,-34.4187,19.2345,14.52,62,0,11.82,ZA,1698597679
12,candolim,15.5181,73.7626,28.0,74,10,1.03,IN,1698597679
13,blackmans bay,-43.0167,147.3167,12.07,59,100,1.79,AU,1698597680
14,thompson,55.7435,-97.8558,-4.91,80,75,3.09,CA,1698597680
15,albany,42.6001,-73.9662,7.02,93,100,2.0,US,1698597310
16,west island,-12.1568,96.8225,25.99,83,100,9.26,CC,1698597681
17,afaahiti,-17.75,-149.2833,22.93,80,35,6.63,PF,1698597682
18,carnarvon,-24.8667,113.6333,19.65,73,0,11.35,AU,1698597682
19,suomussalmi,64.8869,28.9078,-5.69,80,47,1.57,FI,1698597683
20,puerto armuelles,8.2833,-82.8667,27.99,87,70,3.13,PA,1698597683
21,san antonio de pale,-1.4014,5.6325,26.61,81,30,3.32,GQ,1698597684
22,somerset,40.5668,-74.5496,15.05,78,100,2.06,US,1698597684
23,chingola,-12.529,27.8838,20.48,68,92,2.01,ZM,1698597685
24,semenov,56.7875,44.493,-1.66,92,100,3.07,RU,1698597686
25,byron bay,-28.65,153.6167,12.62,80,24,2.03,AU,1698597686
26,hithadhoo,-0.6,73.0833,27.1,79,100,7.63,MV,1698597687
27,hadibu,12.65,54.0333,26.73,75,99,4.49,YE,1698597687
28,nagqu,31.5,92.0,-3.06,77,100,2.69,CN,1698597688
29,quellon,-43.1167,-73.6167,7.7,62,88,7.58,CL,1698597688
30,atafu village,-8.5421,-172.5159,28.78,70,93,5.74,TK,1698597689
31,dakhla,23.6848,-15.958,24.01,64,0,8.23,EH,1698597690
32,tiksi,71.6872,128.8694,-12.78,94,100,2.28,RU,1698597690
33,vilyuchinsk,52.9306,158.4028,3.85,77,70,0.34,RU,1698597691
34,vernon,50.2581,-119.2691,-0.39,65,10,3.6,CA,1698597624
35,port mathurin,-19.6833,63.4167,24.87,77,9,5.88,MU,1698597692
36,jutai,-5.1833,-68.9,27.27,77,100,1.48,BR,1698597692
37,adamstown,-25.066,-130.1015,22.24,84,100,7.37,PN,1698597693
38,chongwe,-15.3292,28.682,26.1,44,98,1.66,ZM,1698597693
39,hamilton,39.1834,-84.5333,14.94,95,100,3.6,US,1698597501
40,yellowknife,62.456,-114.3525,-4.77,94,75,2.06,CA,1698597695
41,port alfred,-33.5906,26.891,15.1,69,81,0.89,ZA,1698597695
42,ascension,30.2169,-90.9001,30.11,56,0,3.6,US,1698597482
43,puerto natales,-51.7236,-72.4875,6.25,52,75,6.69,CL,1698597517
44,mossel bay,-34.1831,22.146,14.96,58,3,10.64,ZA,1698597696
45,lebu,-37.6167,-73.65,9.22,81,100,8.18,CL,1698597697
46,wailua homesteads,22.0669,-159.378,21.44,84,40,3.6,US,1698597697
47,papatowai,-46.5619,169.4708,6.02,90,86,2.08,NZ,1698597698
48,abeche,13.8292,20.8324,32.77,22,36,0.62,TD,1698597699
49,kodiak,57.79,-152.4072,7.73,100,100,7.2,US,1698597699
50,anadyr,64.75,177.4833,-0.72,86,40,8.0,RU,1698597700
51,waitangi,-43.9535,-176.5597,7.68,93,8,0.62,NZ,1698597700
52,clinton,42.587,-82.9199,8.29,84,100,4.12,US,1698597686
53,san patricio,28.017,-97.5169,30.92,61,24,5.97,US,1698597701
54,mezhdurechenskiy,59.6,65.9333,-5.76,78,75,4.66,RU,1698597702
55,chonchi,-42.6128,-73.8092,9.51,62,63,5.26,CL,1698597702
56,isafjordur,66.0755,-23.124,1.02,80,0,0.51,IS,1698597703
57,remire-montjoly,4.9167,-52.2667,33.02,52,0,5.14,GF,1698597703
58,magadan,59.5667,150.8,-2.67,75,85,2.16,RU,1698597704
59,as sulayyil,20.4607,45.5779,30.14,29,100,4.64,SA,1698597705
60,grytviken,-54.2811,-36.5092,3.29,85,69,2.54,GS,1698597706
61,laguna,38.421,-121.4238,17.83,37,0,4.12,US,1698597706
62,bethel,41.3712,-73.414,10.93,87,100,0.45,US,1698597594
63,rochelle park,40.9073,-74.0751,13.32,91,100,3.6,US,1698597441
64,gokwe,-18.2048,28.9349,30.28,17,66,0.58,ZW,1698597707
65,nizao,18.25,-70.2,33.04,66,57,3.79,DO,1698597708
66,kailua-kona,19.6406,-155.9956,26.44,75,40,3.58,US,1698597490
67,boa vista,2.8197,-60.6733,33.99,46,40,5.66,BR,1698597709
68,rajanpur,29.1035,70.325,28.54,21,0,2.26,PK,1698597709
69,punta arenas,-53.15,-70.9167,8.06,36,20,8.23,CL,1698597710
70,praia da vitoria,38.7333,-27.0667,17.64,82,75,7.53,PT,1698597711
71,hotan,37.0997,79.9269,15.6,19,100,1.97,CN,1698597711
72,aberdeen,57.1437,-2.0981,8.27,91,100,6.69,GB,1698597712
73,bardai,11.65,7.2333,29.08,22,8,3.18,NG,1698597712
74,arkhangel'sk,64.5401,40.5433,-4.37,81,90,1.25,RU,1698597713
75,ilulissat,69.2167,-51.1,-3.99,74,75,4.12,GL,1698597714
76,utrik,11.2278,169.8474,28.67,70,97,8.68,MH,1698597714
77,naze,28.3667,129.4833,17.51,67,2,1.73,JP,1698597715
78,iqaluit,63.7506,-68.5145,-7.15,62,75,5.66,CA,1698597715
79,filadelfia,39.9523,-75.1638,21.11,68,75,4.63,US,1698597681
80,mount pearl,47.5166,-52.7813,10.08,69,75,9.26,CA,1698597716
81,bilibino,68.0546,166.4372,-23.04,94,20,2.15,RU,1698597716
82,polyarnyy,69.1989,33.4478,-6.63,90,100,1.45,RU,1698597717
83,kupang,-10.1667,123.5833,25.52,81,72,2.79,ID,1698597717
84,la passe,45.5549,-0.8967,16.1,85,100,3.73,FR,1698597718
85,axim,4.8699,-2.2405,27.7,76,46,2.51,GH,1698597718
86,kuta,-8.7233,115.1723,26.97,94,20,0.51,ID,1698597719
87,ushuaia,-54.8,-68.3,3.81,61,75,8.05,AR,1698597630
88,pandan,14.0453,124.1694,27.06,84,100,5.68,PH,1698597719
89,brezoi,45.338,24.2486,13.04,64,1,1.05,RO,1698597720
90,cancun,21.1743,-86.8466,28.96,61,40,3.6,MX,1698596881
91,saint-philippe,-21.3585,55.7679,25.77,89,49,5.19,RE,1698597721
92,yatou,37.15,122.3833,16.07,82,44,4.44,CN,1698597721
93,kapa'a,22.0752,-159.319,22.18,84,40,3.6,US,1698597722
94,cruzeiro do sul,-29.5128,-51.9853,31.4,60,24,0.73,BR,1698597723
95,puerto aysen,-45.4,-72.7,5.13,90,99,1.72,CL,1698597723
96,bengkulu,-3.8004,102.2655,23.87,86,46,1.37,ID,1698597724
97,stanley,54.868,-1.6985,9.33,93,75,3.6,GB,1698597718
98,vorgashor,67.5833,63.95,-16.85,96,19,2.49,RU,1698597725
99,ribeira grande,38.5167,-28.7,19.22,55,40,5.14,PT,1698597725
100,yuzhno-kurilsk,44.0306,145.8556,7.99,76,6,2.14,RU,1698597726
101,nadym,65.5333,72.5167,-10.91,99,90,1.43,RU,1698597727
102,madera,37.1666,-119.8343,20.54,47,0,1.58,US,1698597727
103,hasaki,35.7333,140.8333,10.22,63,21,8.45,JP,1698597560
104,sakaiminato,35.55,133.2333,11.99,94,75,2.57,JP,1698597729
105,bondoukou,8.0333,-2.8,28.96,63,41,1.02,CI,1698597730
106,taltal,-25.4,-70.4833,17.25,73,45,2.24,CL,1698597730
107,georgetown,5.4112,100.3354,24.99,94,40,1.54,MY,1698597609
108,yakeshi,49.2833,120.7333,-3.34,28,81,4.12,CN,1698597731
109,invercargill,-46.4,168.35,3.9,95,76,0.89,NZ,1698597732
110,saint-apollinaire,47.3333,5.0833,15.63,94,100,2.57,FR,1698597732
111,quang ngai,15.1167,108.8,24.64,91,86,1.98,VN,1698597733
112,govindgarh,27.5,76.9833,25.97,34,0,1.99,IN,1698597733
113,talnakh,69.4865,88.3972,-20.95,96,70,1.2,RU,1698597734
114,keflavik,64.0049,-22.5624,5.95,70,0,2.57,IS,1698597734
115,tura,25.5198,90.2201,19.55,91,7,1.67,IN,1698597620
116,ponta delgada,37.7333,-25.6667,18.99,63,20,5.66,PT,1698597736
117,badarpur,24.9,92.6,21.5,84,22,1.06,IN,1698597737
118,skovorodino,53.9833,123.9167,-3.01,73,100,2.93,RU,1698597737
119,zeya,53.75,127.2667,1.94,56,100,0.89,RU,1698597738
120,shahpura,27.3833,75.9667,24.94,33,0,1.31,IN,1698597738
121,mermoz boabab,14.7065,-17.4758,31.31,74,0,3.09,SN,1698597739
122,myeik,12.4333,98.6,26.43,85,100,1.58,MM,1698597739
123,chui,-33.6971,-53.4616,27.76,51,0,2.02,UY,1698597740
124,tres de maio,-27.7733,-54.24,27.76,68,55,1.74,BR,1698597740
125,taro,-8.3862,115.28,23.0,94,12,0.31,ID,1698597741
126,santana,-0.0583,-51.1817,34.1,52,75,7.72,BR,1698597741
127,uturoa,-16.7333,-151.4333,26.04,79,11,7.37,PF,1698597742
128,prince rupert,54.3161,-130.3201,4.83,87,0,3.6,CA,1698597742
129,constantia,44.1833,28.65,17.38,60,0,3.28,RO,1698597743
130,avarua,-21.2078,-159.775,21.03,73,100,2.57,CK,1698597743
131,rosetta,31.4044,30.4164,24.32,74,20,5.84,EG,1698597744
132,luanda,-8.8368,13.2343,28.0,74,20,9.26,AO,1698597744
133,vershino-darasunskiy,52.35,115.5167,-10.42,44,21,1.78,RU,1698597745
134,oranjemund,-28.55,16.4333,19.59,51,1,10.82,NA,1698597745
135,ust-tsilma,65.441,52.1498,-5.77,79,100,4.02,RU,1698597746
136,enewetak,11.3474,162.3373,28.75,77,24,7.89,MH,1698597747
137,tamala,52.541,43.2515,2.49,92,100,6.76,RU,1698597747
138,sevastopol,44.6,33.5333,14.44,61,1,1.52,UA,1698597748
139,kaspiyskiy,45.3929,47.3707,15.5,46,33,3.41,RU,1698597748
140,diamante,-32.0664,-60.6384,34.13,37,32,4.34,AR,1698597749
141,rio vista,38.1558,-121.6913,17.58,32,0,4.02,US,1698597749
142,phrai bueng,14.7483,104.3626,27.09,87,99,1.97,TH,1698597750
143,aasiaat,68.7098,-52.8699,-6.37,81,100,1.92,GL,1698597750
144,gadzhiyevo,69.2551,33.3362,-6.94,90,100,1.58,RU,1698597751
145,robore,-18.3333,-59.75,40.02,24,51,7.86,BO,1698597752
146,bereznik,62.8551,42.7072,-3.19,98,100,0.86,RU,1698597752
147,cidreira,-30.1811,-50.2056,25.39,69,14,4.65,BR,1698597753
148,hilo,19.7297,-155.09,21.81,80,40,3.09,US,1698597753
149,namibe,-15.1961,12.1522,21.44,76,58,3.4,AO,1698597754
150,palanga,55.9175,21.0686,2.01,93,75,6.69,LT,1698597754
151,nantucket,41.2835,-70.0995,13.08,79,100,4.63,US,1698597755
152,olonkinbyen,70.9221,-8.7187,-0.06,71,100,1.11,SJ,1698597755
153,blagodarnyy,45.0978,43.4364,15.16,48,81,1.86,RU,1698597756
154,tarnogskiy gorodok,60.4997,43.5761,-2.68,96,97,1.2,RU,1698597756
155,minas de marcona,-15.2119,-75.1103,21.3,57,88,7.17,PE,1698597757
156,samut prakan,13.5,100.45,28.01,82,100,1.65,TH,1698597757
157,saint-joseph,-21.3667,55.6167,25.21,87,46,5.3,RE,1698597758
158,hawaiian paradise park,19.5933,-154.9731,21.69,81,40,3.09,US,1698597758
159,sao jose da coroa grande,-8.8978,-35.1478,27.39,62,70,5.62,BR,1698597759
160,vila velha,-20.3297,-40.2925,32.97,46,0,7.2,BR,1698597760
161,nicoya,10.1483,-85.452,27.04,83,96,1.62,CR,1698597760
162,el calafate,-50.3408,-72.2768,5.38,43,47,4.7,AR,1698597761
163,belmonte,-15.8631,-38.8828,27.91,56,91,5.43,BR,1698597578
164,holualoa,19.6228,-155.9522,24.37,72,40,3.58,US,1698597762
165,rawson,-43.3002,-65.1023,14.53,31,92,0.65,AR,1698597763
166,mendi,-6.1761,143.6513,11.83,98,89,1.21,PG,1698597763
167,bunbury,-33.3333,115.6333,8.89,83,0,4.43,AU,1698597764
168,acapulco de juarez,16.8634,-99.8901,29.15,71,69,2.3,MX,1698597472
169,corabia,43.7833,24.5,21.32,44,0,1.38,RO,1698597765
170,mount gambier,-37.8333,140.7667,10.75,88,100,4.42,AU,1698597765
171,vadso,70.0744,29.7487,-3.91,86,75,4.12,NO,1698597766
172,makaha,21.4694,-158.2175,23.54,88,20,0.0,US,1698597766
173,tan-tan,28.438,-11.1032,24.97,57,13,5.14,MA,1698597766
174,uglegorsk,49.0833,142.0333,4.22,60,25,2.7,RU,1698597767
175,ambodifotatra,-16.9833,49.85,25.91,81,15,4.28,MG,1698597767
176,pisco,-13.7,-76.2167,26.03,57,0,4.12,PE,1698597768
177,nemuro,43.3236,145.575,10.22,72,54,3.83,JP,1698597768
178,mar del plata,-38.0023,-57.5575,21.01,42,0,5.14,AR,1698597638
179,college,64.8569,-147.8028,-6.42,86,75,0.0,US,1698597769
180,tazovsky,67.4667,78.7,-15.49,94,27,1.86,RU,1698597770
181,leitchfield,37.48,-86.2939,16.07,98,100,1.34,US,1698597770
182,sitka,57.0531,-135.33,6.94,70,100,2.06,US,1698597771
183,mana,5.6592,-53.7767,31.01,66,80,6.94,GF,1698597771
184,faya-largeau,17.9257,19.1043,30.45,11,1,5.49,TD,1698597771
185,peterhead,57.5058,-1.7981,8.22,81,100,12.54,GB,1698597772
186,lerwick,60.1545,-1.1494,8.0,70,8,13.12,GB,1698597772
187,joensuu,62.6012,29.7632,-3.72,72,100,2.24,FI,1698597773
188,sechura,-5.5569,-80.8222,25.0,62,100,4.31,PE,1698597773
189,alaghsas,17.0187,8.0168,36.94,6,0,4.12,NE,1698597774
190,kerikeri,-35.2268,173.9474,16.06,95,99,2.68,NZ,1698597774
191,tual,-5.6667,132.75,27.66,81,100,4.99,ID,1698597774
192,zaozersk,69.4005,32.4476,-8.47,94,100,1.44,RU,1698597775
193,malango,-2.9627,119.9001,18.46,89,99,1.03,ID,1698597775
194,portland,45.5234,-122.6762,8.77,52,5,5.81,US,1698597368
195,port elizabeth,-33.918,25.5701,14.62,73,40,5.14,ZA,1698597625
196,suez,29.9737,32.5263,25.32,69,4,5.33,EG,1698597777
197,narvik,68.4384,17.4272,-2.33,96,76,2.47,NO,1698597778
198,belzyce,51.1741,22.2803,12.05,84,48,6.48,PL,1698597778
199,el rosario,24.2556,-107.1828,26.89,63,0,1.66,MX,1698597778
200,labrador city,52.9463,-66.9114,-1.05,59,75,6.69,CA,1698597779
201,flying fish cove,-10.4217,105.6791,25.82,88,75,4.63,CX,1698597779
202,barranca,-10.75,-77.7667,21.73,74,90,5.13,PE,1698597780
203,al kharj,24.155,47.3346,29.32,24,79,4.64,SA,1698597780
204,hantsavichy,52.758,26.43,6.26,95,100,3.9,BY,1698597781
205,puerto ayora,-0.7393,-90.3518,28.98,87,69,4.47,EC,1698597781
206,cannonvale,-20.2833,148.7,21.66,63,50,3.1,AU,1698597782
207,hegang,47.4,130.3667,2.16,50,10,1.02,CN,1698597782
208,katsuura,35.1333,140.3,15.79,65,25,5.87,JP,1698597783
209,daye,30.0833,114.95,19.63,56,20,0.79,CN,1698597784
210,tommot,58.9564,126.2925,-8.86,98,100,0.61,RU,1698597784
211,roma,43.2128,-75.4557,8.38,95,100,2.57,US,1698597785
212,katsuren-haebaru,26.3369,127.8719,23.01,82,0,3.09,JP,1698597785
213,new romney,50.986,0.9412,11.2,95,75,3.09,GB,1698597786
214,khandyga,62.6667,135.6,-7.53,97,100,1.29,RU,1698597786
215,plettenberg bay,-34.0527,23.3716,13.92,58,10,6.91,ZA,1698597787
216,whitehorse,60.7161,-135.0538,-3.57,93,100,7.72,CA,1698597787
217,margaret river,-33.95,115.0667,11.59,68,22,5.3,AU,1698597788
218,akrehamn,59.2667,5.1833,8.56,53,75,5.14,NO,1698597789
219,tsiombe,-25.3,45.4833,24.77,72,2,3.58,MG,1698597789
220,khorixas,-20.3667,14.9667,28.14,18,0,7.69,NA,1698597790
221,hammerfest,70.6634,23.6821,-6.75,79,40,0.0,NO,1698597790
222,castillos,-34.1667,-53.8333,28.01,51,5,0.84,UY,1698597790
223,gracemere,-23.4333,150.45,15.95,77,38,0.0,AU,1698597791
224,petrolina,-9.3986,-40.5008,34.03,24,0,7.2,BR,1698597776
225,santa maria,-29.6842,-53.8069,28.61,54,75,1.54,BR,1698597792
226,wasilkow,53.1991,23.2078,7.89,97,100,2.68,PL,1698597792
227,christchurch,-43.5333,172.6333,11.11,81,75,7.2,NZ,1698597713
228,messina,38.1933,15.5497,24.11,67,0,1.54,IT,1698597793
229,tolanaro,-25.0319,46.9987,25.04,73,20,5.14,MG,1698597794
230,alice springs,-23.7,133.8833,22.75,10,87,3.09,AU,1698597794
231,nova vicosa,-17.8919,-39.3719,28.31,59,98,6.9,BR,1698597664
232,dunedin,-45.8742,170.5036,8.22,90,47,0.96,NZ,1698597795
233,bechar,31.6167,-2.2167,30.18,15,0,8.23,DZ,1698597796
234,zhuhai,22.2769,113.5678,25.88,83,40,3.6,CN,1698597541
235,banda aceh,5.5577,95.3222,26.29,82,86,1.01,ID,1698597409
236,saipan,15.1355,145.701,27.39,89,0,2.57,MP,1698597798
237,al jawf,29.5,38.75,17.99,82,100,3.33,SA,1698597798
238,labuan,5.2767,115.2417,28.2,88,20,0.0,MY,1698597799
239,karratha,-20.7377,116.8463,27.26,71,100,6.04,AU,1698597799
240,vysokiy,58.35,60.05,-4.79,93,100,5.82,RU,1698597800
241,francisco i. madero,29.7059,-107.8043,18.18,20,0,4.19,MX,1698597800
242,fale old settlement,-9.3852,-171.2468,28.67,71,88,6.03,TK,1698597801
243,kill devil hills,36.0307,-75.676,25.01,57,0,3.09,US,1698597708
244,la sarre,48.8002,-79.1996,2.45,55,99,3.26,CA,1698597801
245,north bend,43.4065,-124.2243,11.71,61,0,2.06,US,1698597802
246,tofol,5.3248,163.0078,26.93,81,98,3.05,FM,1698597802
247,petropavlovsk-kamchatsky,53.0452,158.6483,3.03,59,0,4.0,RU,1698597803
248,olinda,-8.0089,-34.8553,29.85,62,20,7.2,BR,1698597804
249,letavertes,47.3833,21.9,17.36,61,76,5.17,HU,1698597804
250,ambovombe,-25.1667,46.0833,24.2,81,14,6.66,MG,1698597805
251,igabi,10.7889,7.7749,28.78,26,7,2.07,NG,1698597805
252,kapuskasing,49.4169,-82.4331,0.05,86,100,3.6,CA,1698597648
253,prince george,53.9166,-122.753,-10.31,85,0,0.0,CA,1698597750
254,campo gallo,-26.5833,-62.85,40.23,22,0,2.55,AR,1698597807
255,senador jose porfirio,-2.5908,-51.9542,36.91,34,6,1.69,BR,1698597807
256,la'ie,21.6477,-157.9253,23.57,82,7,3.21,US,1698597808
257,penal,10.1667,-61.4667,33.27,64,99,4.19,TT,1698597809
258,port augusta,-32.5,137.7667,13.15,63,61,3.04,AU,1698597809
259,poronaysk,49.2167,143.1167,0.45,71,21,1.43,RU,1698597810
260,pico truncado,-46.7949,-67.9573,8.26,41,79,9.67,AR,1698597810
261,ola,59.5833,151.2833,-1.44,69,76,2.62,RU,1698597811
262,bamboo flat,11.7,92.7167,26.05,94,40,1.03,IN,1698597812
263,kingston,17.997,-76.7936,33.47,61,20,3.09,JM,1698597688
264,fort bragg,35.139,-79.006,27.12,56,20,5.14,US,1698597718
265,badger,64.8,-147.5333,-6.47,88,100,0.0,US,1698597803
266,eureka,40.8021,-124.1637,12.34,31,0,1.74,US,1698597658
267,weno,7.4515,151.8468,27.97,83,100,5.66,FM,1698597776
268,linares,-35.85,-71.6,11.89,79,100,4.54,CL,1698597815
269,smithers,54.7804,-127.1743,-9.82,92,20,1.03,CA,1698597747
270,sassandra,4.95,-6.0833,27.75,73,14,3.0,CI,1698597816
271,mucuri,-18.0864,-39.5508,28.58,59,100,8.31,BR,1698597816
272,walvis bay,-22.9575,14.5053,15.96,78,28,2.13,NA,1698597817
273,aldama,22.9167,-98.0667,29.33,71,59,3.55,MX,1698597817
274,susuman,62.7833,148.1667,-17.79,99,90,0.45,RU,1698597818
275,amga,60.8953,131.9608,-6.2,94,100,2.18,RU,1698597818
276,lata,40.1629,-8.3327,17.12,91,100,1.32,PT,1698597819
277,vila franca do campo,37.7167,-25.4333,19.23,99,65,5.38,PT,1698597819
278,souillac,-20.5167,57.5167,25.21,78,20,1.54,MU,1698597820
279,polatli,39.5772,32.1413,18.62,51,100,1.66,TR,1698597820
280,rusk,31.796,-95.1502,26.66,52,100,5.14,US,1698597820
281,ko pha ngan,9.7578,100.0291,24.38,72,100,3.55,TH,1698597821
282,karaton,-6.3424,106.1045,24.68,80,6,0.86,ID,1698597821
283,tres arroyos,-38.3739,-60.2798,18.48,21,27,8.98,AR,1698597823
284,puerto deseado,-47.7503,-65.8938,9.82,43,33,11.29,AR,1698597823
285,mount isa,-20.7333,139.5,21.87,56,92,3.09,AU,1698597824
286,bridgetown,13.1,-59.6167,30.27,79,20,6.17,BB,1698597700
287,alta,69.9689,23.2717,-6.41,82,0,3.6,NO,1698597825
288,basco,20.4487,121.9702,27.26,70,95,7.52,PH,1698597825
289,touros,-5.1989,-35.4608,29.63,55,41,8.07,BR,1698597582
290,ciudad lazaro cardenas,17.9583,-102.2,29.66,66,63,0.53,MX,1698597654
291,cole harbour,44.6724,-63.4751,9.42,56,75,6.17,CA,1698597826
292,bay harbor,30.1471,-85.6146,28.29,69,0,2.57,US,1698597827
293,lowestoft,52.4752,1.7516,10.14,91,99,9.4,GB,1698597827
294,quatre cocos,-20.2078,57.7625,25.06,74,13,5.0,MU,1698597828
295,quelimane,-17.8786,36.8883,27.97,89,40,4.63,MZ,1698597829
296,brookings,44.3114,-96.7984,-1.0,71,0,4.63,US,1698597829
297,port lincoln,-34.7333,135.8667,11.9,87,95,4.97,AU,1698597830
298,kharp,66.8014,65.8081,-11.97,97,100,0.9,RU,1698597830
299,zhangye,38.9342,100.4517,10.28,28,0,1.83,CN,1698597831
300,punxsutawney,40.9437,-78.9709,13.32,94,100,0.89,US,1698597832
301,yerofey pavlovich,53.9667,121.9667,-5.74,67,97,1.54,RU,1698597832
302,talakan,50.3167,130.3667,0.9,71,57,2.5,RU,1698597832
303,newman,37.3138,-121.0208,11.83,42,0,0.45,US,1698597833
304,kone,-21.0595,164.8658,18.62,74,42,2.11,NC,1698597828
305,whangarei,-35.7317,174.3239,16.07,98,100,6.53,NZ,1698597834
306,chernyshevsk,52.5243,117.0174,-7.4,39,5,2.22,RU,1698597834
307,breckenridge,32.7557,-98.9023,5.11,100,100,5.66,US,1698597835
308,aykhal,66.0,111.5,-21.68,96,100,3.28,RU,1698597835
309,egilsstadir,65.2653,-14.3948,0.95,100,100,1.54,IS,1698597835
310,maun,-19.9833,23.4167,33.98,21,0,2.06,BW,1698597836
311,boguchany,58.3814,97.4531,-7.66,79,30,1.27,RU,1698597836
312,darwin,-12.4611,130.8418,27.99,79,40,1.79,AU,1698597750
313,tame,6.461,-71.73,28.08,72,100,1.49,CO,1698597627
314,el naranjo,21.4667,-98.6,27.12,77,47,1.98,MX,1698597838
315,harbin,45.75,126.65,11.97,61,43,5.39,CN,1698597838
316,aluksne,57.4167,27.05,0.11,90,100,2.25,LV,1698597839
317,ulladulla,-35.35,150.4667,15.24,45,63,3.31,AU,1698597839
318,dunda,-8.1167,34.25,24.81,49,85,1.21,TZ,1698597840
319,erenhot,43.6475,111.9767,5.1,40,4,2.38,CN,1698597840
320,tshabong,-26.05,22.45,24.19,10,0,4.61,BW,1698597841
321,new norfolk,-42.7826,147.0587,12.73,56,100,3.62,AU,1698597841
322,bubaque,11.2833,-15.8333,28.27,74,87,3.42,GW,1698597842
323,callao,-12.0667,-77.15,21.16,73,75,8.23,PE,1698597692
324,daru,-9.0763,143.2092,25.19,88,100,7.32,PG,1698597843
325,howard springs,-12.497,131.047,27.95,82,33,1.77,AU,1698597843
326,nar'yan-mar,67.6713,53.087,-8.83,86,100,5.81,RU,1698597844
327,zouerate,22.7187,-12.4521,35.72,9,3,2.01,MR,1698597845
328,dongargaon,20.9667,80.85,20.43,64,2,1.61,IN,1698597845
329,val-d'or,48.1002,-77.7828,2.05,64,75,3.6,CA,1698597803
330,midelt,32.6852,-4.7451,19.9,41,100,4.73,MA,1698597846
331,maintirano,-18.0667,44.0167,26.57,79,1,3.12,MG,1698597846
332,cabrobo,-8.5142,-39.31,36.58,18,51,6.59,BR,1698597693
333,redencao,-4.2258,-38.7306,36.87,25,37,5.24,BR,1698597847
334,telsiai,55.9814,22.2472,1.57,93,100,6.79,LT,1698597848
335,youhao,47.8667,128.8333,2.99,58,85,1.56,CN,1698597849
336,cockburn town,21.4612,-71.1419,28.27,77,59,2.58,TC,1698597849
337,alofi,-19.0595,-169.9187,23.94,88,100,5.66,NU,1698597843
338,galich,58.3797,42.3475,-2.27,96,100,2.38,RU,1698597851
339,luganville,-15.5333,167.1667,23.62,82,93,2.19,VU,1698597851
340,hoa binh,20.8133,105.3383,22.1,95,100,0.17,VN,1698597851
341,kittila,67.6647,24.8936,-6.92,93,75,1.03,FI,1698597852
342,broken hill,-31.95,141.4333,15.0,35,56,7.11,AU,1698597853
343,crane,31.3974,-102.3501,7.85,89,100,10.2,US,1698597854
344,puerto quijarro,-17.7833,-57.7667,40.61,23,92,4.32,BO,1698597854
345,jayapura,-2.5333,140.7,25.66,91,66,2.5,ID,1698597855
346,novo aripuana,-5.1206,-60.3797,41.18,19,32,1.84,BR,1698597855
347,carutapera,-1.195,-46.02,30.94,58,97,5.6,BR,1698597856
348,chulakkurgan,43.765,69.1814,18.02,46,100,3.22,KZ,1698597856
349,sisimiut,66.9395,-53.6735,-3.96,67,100,4.5,GL,1698597857
350,udachny,66.4167,112.4,-15.86,84,100,3.37,RU,1698597857
351,astrakhan,46.3497,48.0408,11.93,76,0,5.0,RU,1698597858
352,saldanha,-33.0117,17.9442,26.03,44,0,6.58,ZA,1698597624
353,takhatgarh,25.3333,73.0,26.39,30,1,1.77,IN,1698597859
354,berdigestyakh,62.0989,126.6992,-21.13,100,87,1.05,RU,1698597859
355,freetown,8.484,-13.2299,29.84,70,20,3.6,SL,1698597860
356,nampula,-15.1165,39.2666,30.97,42,40,7.72,MZ,1698597860
357,coaticook,45.1334,-71.7991,2.87,71,100,1.57,CA,1698597803
358,pankrushikha,53.8319,80.3406,-3.81,79,73,2.92,RU,1698597861
359,esmeraldas,-19.7625,-44.3139,33.58,41,95,2.89,BR,1698597861
360,eydhafushi,5.1033,73.0708,27.48,76,99,3.9,MV,1698597862
361,jamestown,42.097,-79.2353,8.07,97,100,3.6,US,1698597808
362,tombodu,8.1333,-10.6167,29.0,65,38,0.93,SL,1698597863
363,maxixe,-23.8597,35.3472,20.9,94,75,7.2,MZ,1698597863
364,hami,42.8,93.45,14.29,32,100,3.07,CN,1698597864
365,puerto leguizamo,-0.1934,-74.7819,27.5,69,100,2.55,CO,1698597865
366,mwinilunga,-11.7358,24.4293,19.7,82,98,2.03,ZM,1698597865
367,makokou,0.5738,12.8642,24.02,87,100,0.79,GA,1698597866
368,dudinka,69.4058,86.1778,-15.74,92,55,5.81,RU,1698597866
369,lakatoro,-16.0999,167.4164,23.96,80,91,2.69,VU,1698597867
370,port antonio,18.18,-76.4612,34.44,72,41,1.97,JM,1698597867
371,hinton,53.4001,-117.5857,-0.13,64,100,2.2,CA,1698597868
372,vilyuysk,63.7553,121.6247,-10.56,94,58,2.24,RU,1698597868
373,ust-nera,64.5667,143.2,-18.04,97,60,0.93,RU,1698597868
374,virton,49.5682,5.5326,12.48,86,99,8.28,BE,1698597869
375,bom jesus,-9.0744,-44.3586,40.81,13,43,3.74,BR,1698597833
376,rechka-vydrino,51.485,104.8461,-1.22,56,37,1.92,RU,1698597870
377,muana,-1.5283,-49.2167,36.67,33,8,3.43,BR,1698597624
378,tomohon,1.3346,124.8392,22.52,84,65,0.41,ID,1698597871
379,klyuchi,52.2667,79.1667,-1.05,94,97,3.15,RU,1698597871
380,guaiuba,-4.0397,-38.6372,31.69,31,44,6.64,BR,1698597872
381,puerto baquerizo moreno,-0.9,-89.6,27.55,69,40,5.14,EC,1698597872
382,cocula,20.3652,-103.8222,26.06,56,36,0.78,MX,1698597873
383,illizi,26.4833,8.4667,34.89,13,3,3.36,DZ,1698597873
384,veraval,20.9,70.3667,27.7,63,100,2.25,IN,1698597874
385,tromso,69.6496,18.957,-2.99,86,20,2.57,NO,1698597874
386,svetlyy,54.675,20.1347,6.03,85,100,8.45,RU,1698597875
387,margate,51.3813,1.3862,10.73,89,75,10.23,GB,1698597586
388,amungan,15.3652,119.9582,26.12,78,8,2.5,PH,1698597876
389,formosa do rio preto,-11.0483,-45.1931,39.11,15,10,4.72,BR,1698597876
390,knyaze-volkonskoye,48.4642,135.4567,0.0,58,26,1.79,RU,1698597877
391,port shepstone,-30.7414,30.455,16.11,58,87,9.67,ZA,1698597877
392,sorong,-0.8833,131.25,25.58,89,58,2.73,ID,1698597878
393,vera,-29.4593,-60.2126,33.45,42,1,3.16,AR,1698597878
394,acarau,-2.8856,-40.12,31.72,51,10,9.54,BR,1698597879
395,sao felix do xingu,-6.6447,-51.995,36.57,28,45,3.73,BR,1698597879
396,brinkmann,-30.8659,-62.0374,35.55,39,23,3.98,AR,1698597880
397,paradip garh,20.3167,86.6167,25.11,64,88,0.88,IN,1698597880
398,trenggalek,-8.05,111.7167,23.96,93,77,0.68,ID,1698597881
399,blagoveshchenka,52.8333,79.8667,-2.37,93,96,3.08,RU,1698597881
400,kavieng,-2.5744,150.7967,27.47,78,34,5.52,PG,1698597840
401,zyryanovsk,49.7386,84.2719,-0.26,99,100,0.8,KZ,1698597882
402,yashkul',46.1711,45.3435,14.87,50,22,3.4,RU,1698597845
403,bandiagara,14.3501,-3.6104,35.66,14,8,4.17,ML,1698597883
404,coquimbo,-29.9533,-71.3436,19.85,55,0,4.63,CL,1698597797
405,glace bay,46.1969,-59.957,9.43,65,75,8.75,CA,1698597884
406,kuusamo,65.9667,29.1833,-5.98,93,75,1.03,FI,1698597885
407,rabaul,-4.1967,152.1721,25.88,82,53,2.49,PG,1698597885
408,bam,29.106,58.357,23.56,33,3,1.07,IR,1698597886
409,matane,48.8286,-67.522,3.14,55,85,6.87,CA,1698597740
410,malvan,16.0667,73.4667,26.57,69,1,0.76,IN,1698597886
411,surab,28.4914,66.2585,17.6,35,79,2.53,PK,1698597887
412,bintulu,3.1667,113.0333,25.23,100,20,0.51,MY,1698597887
413,tuy hoa,13.0833,109.3,25.14,91,50,1.84,VN,1698597888
414,moranbah,-22.0016,148.0466,16.52,75,85,2.23,AU,1698597888
415,choyr,46.3611,108.3611,0.38,68,55,3.53,MN,1698597889
416,tabou,4.423,-7.3528,27.71,74,14,3.09,CI,1698597889
417,el dorado,38.7666,-120.5177,15.38,26,0,0.45,US,1698597890
418,neryungri,56.6709,124.6491,-9.44,93,100,3.74,RU,1698597890
419,peace river,56.2501,-117.286,-9.83,92,20,0.0,CA,1698597891
420,bodaybo,57.8506,114.1933,-6.0,65,100,2.25,RU,1698597891
421,adapazari,40.7806,30.4033,21.18,87,100,0.42,TR,1698597892
422,tanakpur,29.0833,80.1167,19.81,68,0,2.34,IN,1698597892
423,acarigua,9.5545,-69.1956,33.49,53,42,0.72,VE,1698597615
424,tezu,27.9167,96.1667,20.79,62,8,1.75,IN,1698597893
425,cafayate,-26.073,-65.9761,30.96,6,18,2.75,AR,1698597893
426,ancud,-41.8697,-73.8203,8.36,52,82,8.42,CL,1698597894
427,ta`u,-14.2336,-169.5144,26.91,80,68,5.32,AS,1698597894
428,rudnichnyy,59.617,52.4703,-3.3,91,100,4.12,RU,1698597895
429,bori,4.6737,7.362,27.23,83,95,2.97,NG,1698597896
430,nuuk,64.1835,-51.7216,-0.66,80,100,2.57,GL,1698597741
431,nea alikarnassos,35.3333,25.1667,22.82,84,40,2.06,GR,1698597599
432,revda,56.801,59.9303,-2.78,95,100,5.9,RU,1698597897
433,puerto carreno,6.189,-67.4859,32.99,58,20,2.57,CO,1698597898
434,dauphin,51.1494,-100.0502,-5.92,79,0,6.17,CA,1698597898
435,mahina,-17.5065,-149.489,23.87,88,20,1.54,PF,1698597899
436,laojunmiao,39.8333,97.7333,8.66,29,3,3.23,CN,1698597899
437,flin flon,54.7682,-101.865,-4.09,74,100,4.12,CA,1698597899
438,marsh harbour,26.5412,-77.0636,26.47,67,72,9.23,BS,1698597900
439,ati,13.2154,18.3353,35.25,15,11,2.66,TD,1698597900
440,haiku-pauwela,20.9219,-156.3051,25.02,77,0,3.6,US,1698597901
441,kogalym,62.2654,74.4791,-13.43,98,45,0.64,RU,1698597901
442,wagar,16.1525,36.2032,33.92,34,63,1.35,SD,1698597902
443,porbandar,21.6422,69.6093,28.12,57,99,4.69,IN,1698597902
444,kamina,-8.7386,24.9906,23.4,64,65,1.85,CD,1698597903
445,tchibanga,-2.85,11.0333,24.89,92,74,2.26,GA,1698597903
446,mil'kovo,55.6078,37.7956,1.08,91,100,4.61,RU,1698597904
447,alnashi,56.1874,52.4792,0.49,98,100,4.66,RU,1698597904
448,palmerston,-12.486,130.9833,27.99,81,75,2.06,AU,1698597905
449,spearfish,44.4908,-103.8594,-2.84,74,100,8.23,US,1698597906
450,douz,33.4663,9.0203,29.4,16,100,3.78,TN,1698597906
451,jaswantnagar,26.8786,78.9028,24.85,34,0,1.85,IN,1698597907
452,elva,58.2225,26.4211,1.23,90,100,1.54,EE,1698597907
453,shipunovo,52.1582,82.2173,-1.96,94,98,2.86,RU,1698597908
454,berezovo,63.9381,65.0419,-11.85,96,56,2.08,RU,1698597909
455,zhanibek,49.4167,46.85,9.48,69,64,6.72,KZ,1698597909
456,ingeniero jacobacci,-41.3427,-69.5448,6.73,39,79,11.61,AR,1698597910
457,prieska,-29.6641,22.7474,18.54,12,0,10.85,ZA,1698597911
458,seeb,23.6703,58.1891,29.05,61,0,1.03,OM,1698597912
459,elko,41.0002,-115.5012,-2.69,51,0,3.13,US,1698597912
460,port-gentil,-0.7193,8.7815,26.85,85,32,4.22,GA,1698597913
461,serdar,38.9764,56.2757,23.55,35,7,3.5,TM,1698597914
462,nova sintra,14.8667,-24.7167,23.21,67,97,5.48,CV,1698597914
463,valencia,39.3333,-0.8333,19.86,45,100,0.8,ES,1698597915
464,roxas,11.5853,122.7511,24.52,86,97,2.38,PH,1698597915
465,st. john's,47.5649,-52.7093,10.54,68,75,9.26,CA,1698597791
466,inverurie,57.2845,-2.3774,7.95,90,100,6.69,GB,1698597917
467,itoman,26.1247,127.6694,22.01,68,4,2.06,JP,1698597917
468,chillicothe,39.3331,-82.9824,15.51,100,100,1.54,US,1698597684
469,humaita,-7.5061,-63.0208,41.9,20,41,1.59,BR,1698597918
470,mombetsu,44.3525,143.3525,7.16,86,95,0.59,JP,1698597919
471,ponnani,10.767,75.9252,25.62,83,99,1.34,IN,1698597920
472,kununurra,-15.7667,128.7333,22.99,73,57,2.57,AU,1698597920
473,i-n-salah,27.1935,2.4607,32.55,13,100,1.78,DZ,1698597855
474,undurkhaan,47.3194,110.6556,-0.93,57,15,2.88,MN,1698597921
475,ocos,14.5094,-92.1933,28.1,74,98,1.39,GT,1698597921
476,hengchun,22.0042,120.7439,24.29,79,90,5.96,TW,1698597922
477,sumbawa besar,-8.5,117.4333,23.12,78,29,1.69,ID,1698597923
478,tazacorte,28.629,-17.9293,24.54,78,20,3.09,ES,1698597923
479,bakchar,57.0186,82.0711,-7.21,97,52,1.54,RU,1698597924
480,genhe,50.7833,121.5167,-4.65,48,82,2.18,CN,1698597924
481,balqash,46.8481,74.995,11.38,87,100,2.84,KZ,1698597925
482,koulikoro,14.0,-7.75,33.36,28,92,2.66,ML,1698597925
483,juticalpa,14.65,-86.2,32.08,65,59,0.99,HN,1698597725
484,lugazi,0.3772,32.9197,18.84,90,16,0.96,UG,1698597926
485,winnemucca,40.973,-117.7357,-3.97,58,0,1.54,US,1698597927
486,zhalantun,48.0,122.7167,5.59,30,95,7.52,CN,1698597927
487,fort st. john,56.2499,-120.8529,-8.06,86,75,2.06,CA,1698597741
488,necochea,-38.5473,-58.7368,17.18,34,81,10.36,AR,1698597929
489,al qadarif,14.0349,35.3834,23.72,80,58,3.7,SD,1698597929
490,iskateley,67.6803,53.1512,-8.88,86,100,5.81,RU,1698597882
491,murray bridge,-35.1167,139.2667,13.96,80,100,2.75,AU,1698597930
492,campo maior,-4.8278,-42.1686,40.23,14,30,4.02,BR,1698597931
493,praia,14.9215,-23.5087,29.3,58,75,4.63,CV,1698597931
494,palikir - national government center,6.9248,158.1611,24.41,94,100,1.54,FM,1698597932
495,la junta,37.985,-103.5438,-2.68,66,100,8.23,US,1698597932
496,nurota,40.5614,65.6886,20.17,34,55,2.71,UZ,1698597933
497,dukhovnitskoye,52.4828,48.2137,3.46,95,100,9.27,RU,1698597934
498,east london,-33.0153,27.9116,15.4,53,97,4.71,ZA,1698597909
499,broome,42.2506,-75.833,8.72,96,100,2.06,US,1698597935
500,kondoa,-4.9,35.7833,25.81,36,65,5.94,TZ,1698597935
501,happy valley-goose bay,53.3168,-60.3315,2.17,51,40,20.06,CA,1698597911
502,ondjiva,-17.0667,15.7333,31.96,9,61,4.41,AO,1698597936
503,craig,40.5153,-107.5464,-2.56,68,100,2.57,US,1698597937
504,jabor,5.921,169.6434,28.65,77,37,6.79,MH,1698597937
505,taytay,14.5678,121.1394,28.34,81,40,3.09,PH,1698597938
506,cestos city,5.46,-9.5828,28.07,75,4,4.51,LR,1698597938
507,geraldton,-28.7667,114.6,15.23,82,54,3.6,AU,1698597939
508,verkhnevilyuysk,63.4453,120.3167,-11.57,91,52,2.46,RU,1698597939
509,youghal,51.95,-7.8506,11.56,99,95,3.0,IE,1698597940
510,vallo della lucania,40.2297,15.2658,16.42,88,0,1.1,IT,1698597940
511,okoneshnikovo,54.8377,75.0834,-2.95,72,81,4.14,RU,1698597941
512,promyshlennaya,54.9159,85.6385,-5.22,90,69,2.02,RU,1698597941
513,brisas de zicatela,15.8369,-97.0419,30.29,54,40,0.0,MX,1698597942
514,abra pampa,-22.7205,-65.697,15.31,17,13,0.78,AR,1698597942
515,constitucion,-35.3333,-72.4167,13.97,63,79,6.25,CL,1698597944
516,ihosy,-22.4,46.1167,25.84,49,93,2.77,MG,1698597944
517,nema,57.5067,50.5011,-1.78,96,100,4.42,RU,1698597945
518,meadow lakes,61.6247,-149.6011,4.58,59,100,0.89,US,1698597945
519,colonia,50.9333,6.95,15.07,72,0,6.69,DE,1698597875
520,pimentel,-6.8367,-79.9342,27.16,54,0,6.17,PE,1698597946
521,kuala terengganu,5.3302,103.1408,25.97,100,40,1.54,MY,1698597947
522,seydi,39.4816,62.9137,21.97,36,76,2.35,TM,1698597947
523,salmon arm,50.6998,-119.3024,-4.38,80,12,1.03,CA,1698597948
524,beatrice,40.2681,-96.747,0.66,64,100,6.69,US,1698597948
525,grand-bassam,5.2118,-3.7388,29.98,76,38,3.5,CI,1698597949
526,hollidaysburg,40.4273,-78.3889,19.57,87,100,0.0,US,1698597949
527,kitimat,54.0524,-128.6534,-3.79,59,80,0.79,CA,1698597950
528,kurchatov,51.6601,35.6521,5.23,79,85,3.48,RU,1698597950
529,mbanza kongo,-6.267,14.2401,27.18,67,77,1.18,AO,1698597951
530,ad dabbah,18.05,30.95,33.36,17,27,3.86,SD,1698597951
531,marion,39.7684,-86.1555,11.43,93,100,3.6,US,1698597858
532,beinamar,8.6698,15.3813,28.63,53,67,3.24,TD,1698597952
533,mukharram al fawqani,34.8151,37.0861,26.48,28,95,3.38,SY,1698597952
534,ust'-ilimsk,58.0006,102.6619,-6.42,68,96,3.13,RU,1698597953
535,balsas,-7.5325,-46.0356,40.13,14,5,4.33,BR,1698597954
536,the villages,28.9341,-81.9599,28.97,66,40,6.26,US,1698597814
537,urzhar,47.093,81.6294,8.5,97,100,0.9,KZ,1698597954
538,kristiansund,63.1115,7.732,3.36,65,0,2.06,NO,1698597955
539,berwick-upon-tweed,55.7833,-2.0,10.13,89,100,11.39,GB,1698597955
540,dossor,47.5272,52.9811,13.46,61,0,7.12,KZ,1698597956
541,coyah,9.75,-13.4167,29.53,78,42,1.8,GN,1698597956
542,argo,37.6333,22.7333,19.32,66,16,0.34,GR,1698597872
543,guapiles,10.2159,-83.7866,30.46,77,91,1.78,CR,1698597957
544,kodinsk,58.6881,99.1844,-6.42,72,94,1.85,RU,1698597958
545,taroa,8.7058,171.2275,28.39,80,57,8.91,MH,1698597958
546,asau,46.4333,26.4,13.51,66,0,2.2,RO,1698597959
547,gobabis,-22.45,18.9667,27.18,13,7,5.39,NA,1698597959
548,bouar,5.934,15.596,22.08,79,93,2.77,CF,1698597960
549,saint-pierre,-21.3393,55.4781,25.82,78,20,3.09,RE,1698597961
550,yaren,-0.5472,166.916,28.16,75,26,2.89,NR,1698597961
551,tukrah,32.5341,20.5791,22.8,74,9,4.22,LY,1698597962
552,obigarm,38.7173,69.7088,15.6,40,100,1.32,TJ,1698597963
553,kralendijk,12.15,-68.2667,33.99,55,40,3.6,BQ,1698597963
554,kodinar,20.7903,70.7031,26.83,57,96,2.55,IN,1698597964
555,kavaratti,10.5669,72.642,28.73,68,88,1.26,IN,1698597964
556,lugoba,-6.45,38.3333,24.85,81,98,3.19,TZ,1698597965
557,zhlobin,52.8926,30.024,2.99,85,69,2.88,BY,1698597965
558,antofagasta,-23.65,-70.4,18.6,69,7,4.7,CL,1698597966
559,kokpekty,48.75,82.4,1.0,100,100,1.47,KZ,1698597966
560,acheng,45.5454,126.977,9.63,58,55,5.39,CN,1698597967
561,batticaloa,7.7102,81.6924,26.56,79,99,3.0,LK,1698597755
562,mili,6.0815,171.735,28.62,77,100,6.31,MH,1698597968
563,virac,13.6333,124.2167,22.72,87,99,3.47,PH,1698597968
564,namtsy,62.7161,129.6658,-11.73,94,100,2.51,RU,1698597969
565,kenai,60.5544,-151.2583,4.05,82,100,6.17,US,1698597880
566,gunja,44.88,18.8533,17.75,49,6,2.63,HR,1698597970
567,kajuru,10.3192,7.6892,27.77,30,21,1.32,NG,1698597971
568,pinckneyville,38.0803,-89.382,9.98,89,100,4.44,US,1698597973
569,busan,35.1028,129.0403,11.99,82,0,2.06,KR,1698597973
570,greenville,35.6127,-77.3663,27.29,57,0,5.66,US,1698597872
571,antonio enes,-16.2325,39.9086,26.55,79,0,7.88,MZ,1698597974
