City_ID,City,Lat,Lng,Max Temp,Humidity,Cloudiness,Wind Speed,Country,Date
0,hawaiian paradise park,19.5933,-154.9731,21.13,84,100,2.57,US,1698507483
1,hadibu,12.65,54.0333,26.73,73,76,4.23,YE,1698507483
2,cadale,2.7603,46.3222,28.1,74,100,4.08,SO,1698507484
3,la foa,-21.7108,165.8276,21.68,80,78,3.8,NC,1698507484
4,waitangi,-43.9535,-176.5597,9.9,83,35,4.92,NZ,1698507484
5,adamstown,-25.066,-130.1015,22.66,80,100,5.35,PN,1698507485
6,ilulissat,69.2167,-51.1,-3.99,80,100,4.12,GL,1698507466
7,bredasdorp,-34.5322,20.0403,14.17,62,91,6.04,ZA,1698507258
8,tiksi,71.6872,128.8694,-13.75,92,100,2.41,RU,1698507487
9,bethel,41.3712,-73.414,25.11,65,0,3.6,US,1698507269
10,nar'yan-mar,67.6713,53.087,-12.16,90,73,3.58,RU,1698507488
11,tawau,4.2498,117.8871,26.07,88,60,2.24,MY,1698507488
12,punta arenas,-53.15,-70.9167,6.06,49,75,3.6,CL,1698507386
13,mugia,43.1041,-9.2179,16.2,82,100,11.73,ES,1698507489
14,angaur state,6.906,134.13,28.17,72,100,1.75,PW,1698507489
15,puerto natales,-51.7236,-72.4875,2.25,93,100,2.06,CL,1698507490
16,kodinsk,58.6881,99.1844,-3.09,63,100,5.13,RU,1698507490
17,port lincoln,-34.7333,135.8667,10.19,77,29,2.4,AU,1698507491
18,puerto ayora,-0.7393,-90.3518,26.98,87,100,4.92,EC,1698507491
19,darwin,-12.4611,130.8418,28.99,74,40,3.09,AU,1698507492
20,phatthalung,7.5,100.0833,25.96,86,100,0.74,TH,1698507492
21,colonia,50.9333,6.95,14.42,77,75,4.12,DE,1698507314
22,port-aux-francais,-49.35,70.2167,5.16,98,100,7.94,TF,1698507493
23,olonkinbyen,70.9221,-8.7187,-0.89,78,91,2.83,SJ,1698507494
24,saudarkrokur,65.7461,-19.6394,1.4,82,97,2.22,IS,1698507494
25,albany,42.6001,-73.9662,23.3,68,26,4.62,US,1698507494
26,badger,64.8,-147.5333,-8.69,83,0,0.0,US,1698507495
27,west island,-12.1568,96.8225,25.99,78,100,8.75,CC,1698507495
28,i-n-salah,27.1935,2.4607,34.96,10,10,0.63,DZ,1698507496
29,utrik,11.2278,169.8474,28.43,74,86,7.76,MH,1698507496
30,papar,5.7333,115.9333,27.0,85,30,1.44,MY,1698507497
31,port alfred,-33.5906,26.891,13.43,95,80,2.24,ZA,1698507498
32,minas de marcona,-15.2119,-75.1103,16.35,77,98,5.05,PE,1698507498
33,ushuaia,-54.8,-68.3,7.79,49,75,4.63,AR,1698507498
34,saint marys,30.7305,-81.5465,27.79,75,0,4.63,US,1698507213
35,iqaluit,63.7506,-68.5145,-10.15,78,20,3.6,CA,1698507499
36,pandan,14.0453,124.1694,27.18,83,8,4.42,PH,1698507500
37,laojunmiao,39.8333,97.7333,7.01,35,68,0.96,CN,1698507500
38,atafu village,-8.5421,-172.5159,27.86,74,54,2.03,TK,1698507501
39,margate,51.3813,1.3862,14.06,83,76,3.58,GB,1698507501
40,tura,25.5198,90.2201,19.35,73,0,1.61,IN,1698507502
41,udachny,66.4167,112.4,-15.35,96,90,3.97,RU,1698507502
42,bafia,4.75,11.2333,28.78,68,72,1.24,CM,1698507503
43,broome,42.2506,-75.833,21.92,84,100,4.63,US,1698507503
44,coahuayana de hidalgo,18.7,-103.6583,29.36,72,93,0.77,MX,1698507503
45,beira,-19.8436,34.8389,27.05,74,0,7.2,MZ,1698507504
46,duderstadt,51.5131,10.2595,12.18,95,82,3.56,DE,1698507504
47,ribeira grande,38.5167,-28.7,19.22,68,40,6.69,PT,1698507505
48,kodiak,57.79,-152.4072,7.73,93,100,6.17,US,1698507506
49,karatas,36.582,35.3701,26.36,60,5,2.69,TR,1698507506
50,cole harbour,44.6724,-63.4751,20.54,78,20,4.63,CA,1698507506
51,tympaki,35.0729,24.7685,24.98,80,17,4.47,GR,1698507507
52,bhatpara abhaynagar,23.0153,89.4432,23.92,55,49,1.92,BD,1698507507
53,chonchi,-42.6128,-73.8092,9.56,77,86,6.09,CL,1698507509
54,hithadhoo,-0.6,73.0833,27.1,84,43,7.88,MV,1698507509
55,itoman,26.1247,127.6694,22.43,65,40,1.54,JP,1698507510
56,cabo san lucas,22.8909,-109.9124,25.84,72,0,3.09,MX,1698507510
57,luanda,-8.8368,13.2343,29.0,70,20,9.26,AO,1698507385
58,egilsstadir,65.2653,-14.3948,3.95,75,20,4.63,IS,1698507511
59,playa vicente,17.8333,-95.8167,25.84,84,96,3.86,MX,1698507511
60,susuman,62.7833,148.1667,-17.23,99,90,0.45,RU,1698507512
61,college,64.8569,-147.8028,-8.64,83,20,0.0,US,1698507361
62,nikolayevsk-on-amure,53.1406,140.73,-1.94,81,77,2.06,RU,1698507513
63,sinan,34.8262,126.1086,12.06,70,12,2.73,KR,1698507513
64,invercargill,-46.4,168.35,6.68,94,37,1.34,NZ,1698507514
65,stanley,54.868,-1.6985,10.01,93,75,3.09,GB,1698507514
66,yellowknife,62.456,-114.3525,-1.99,100,75,4.63,CA,1698507514
67,gamba,-2.65,10.0,27.23,78,48,3.85,GA,1698507515
68,puerto baquerizo moreno,-0.9,-89.6,26.55,74,75,8.23,EC,1698507516
69,qaqortoq,60.7167,-46.0333,0.96,72,19,0.71,GL,1698507516
70,taulaga,-11.0553,-171.0883,27.82,78,43,2.83,AS,1698507516
71,tazovsky,67.4667,78.7,-13.67,91,66,5.31,RU,1698507517
72,ascension,30.2169,-90.9001,27.89,64,0,4.12,US,1698507518
73,longyearbyen,78.2186,15.6401,-4.09,93,75,3.09,SJ,1698507518
74,vangaindrano,-23.35,47.6,23.46,91,87,3.96,MG,1698507518
75,edinburgh of the seven seas,-37.0676,-12.3116,14.48,91,100,5.91,SH,1698507519
76,uturoa,-16.7333,-151.4333,25.87,80,99,4.56,PF,1698507519
77,tual,-5.6667,132.75,27.8,80,86,2.6,ID,1698507520
78,guerrero negro,27.9769,-114.0611,19.94,67,0,6.02,MX,1698507520
79,dudinka,69.4058,86.1778,-12.96,99,90,1.34,RU,1698507521
80,kavaratti,10.5669,72.642,28.95,66,75,1.05,IN,1698507521
81,san ignacio,17.1561,-89.0714,26.08,83,75,0.0,BZ,1698507521
82,port elizabeth,-33.918,25.5701,13.16,88,100,5.66,ZA,1698507522
83,happy valley-goose bay,53.3168,-60.3315,1.17,93,100,1.54,CA,1698507522
84,maragogi,-9.0122,-35.2225,28.21,61,80,6.5,BR,1698507523
85,nuku'alofa,-21.1333,-175.2,22.19,88,20,6.17,TO,1698507523
86,belyy yar,53.6039,91.3903,-5.06,68,0,2.0,RU,1698507524
87,margaret river,-33.95,115.0667,14.81,73,100,4.83,AU,1698507524
88,youkounkoun,12.5333,-13.1333,34.2,44,81,1.11,GN,1698507525
89,midvagur,62.0511,-7.1939,7.46,61,75,5.14,FO,1698507525
90,grytviken,-54.2811,-36.5092,-1.19,95,100,2.93,GS,1698507525
91,brisas de zicatela,15.8369,-97.0419,30.29,58,0,1.54,MX,1698507526
92,meadow lake,34.8014,-106.5436,17.49,32,0,3.6,US,1698507526
93,fonte boa,-2.4959,-66.2662,31.76,58,100,1.22,BR,1698507527
94,kiranur,10.5699,78.7868,27.84,86,96,2.71,IN,1698507528
95,simanggang,1.2472,111.4528,25.01,100,78,0.0,MY,1698507528
96,thompson,55.7435,-97.8558,-5.91,93,100,2.06,CA,1698507529
97,pundong,-7.9522,110.3486,25.4,84,55,2.16,ID,1698507529
98,nadi,-17.8,177.4167,23.0,88,20,1.03,FJ,1698507530
99,malvan,16.0667,73.4667,26.83,70,3,2.58,IN,1698507530
100,spanish wells,26.323,-81.7957,28.88,62,0,8.23,US,1698507531
101,sakakah,29.9697,40.2064,29.76,20,99,5.83,SA,1698507531
102,kavieng,-2.5744,150.7967,27.24,83,10,6.41,PG,1698507532
103,jamestown,42.097,-79.2353,13.62,94,100,4.63,US,1698507338
104,ialibu,-6.2821,143.9935,13.93,99,100,0.88,PG,1698507533
105,torbat-e jam,35.244,60.6225,22.28,25,96,2.86,IR,1698507533
106,ta`u,-14.2336,-169.5144,26.3,83,52,7.18,AS,1698507534
107,lata,40.1629,-8.3327,17.26,83,96,5.65,PT,1698507534
108,sisimiut,66.9395,-53.6735,-4.1,77,78,4.53,GL,1698507535
109,mount gambier,-37.8333,140.7667,5.04,93,90,1.45,AU,1698507535
110,buala,-8.145,159.5921,26.04,84,96,1.54,SB,1698507536
111,georgetown,5.4112,100.3354,26.96,94,40,1.03,MY,1698507351
112,sao joao da barra,-21.6403,-41.0511,28.05,83,100,3.75,BR,1698507397
113,carnarvon,-24.8667,113.6333,20.3,72,6,10.9,AU,1698507537
114,malayer,34.2969,48.8235,13.91,25,78,0.97,IR,1698507530
115,anadyr,64.75,177.4833,2.28,93,100,5.0,RU,1698507538
116,iskateley,67.6803,53.1512,-12.21,90,72,3.58,RU,1698507540
117,bilibino,68.0546,166.4372,-21.18,98,61,0.61,RU,1698507540
118,cao bang,22.6667,106.25,21.63,85,100,0.84,VN,1698507541
119,naracoorte,-36.9579,140.7383,3.95,90,78,0.8,AU,1698507541
120,flying fish cove,-10.4217,105.6791,25.82,88,100,4.63,CX,1698507542
121,saint-joseph,-21.3667,55.6167,25.21,84,29,4.18,RE,1698507542
122,gadzhiyevo,69.2551,33.3362,-4.07,88,100,1.78,RU,1698507543
123,blackmans bay,-43.0167,147.3167,10.41,67,47,5.1,AU,1698507543
124,boyalik,41.2634,28.6314,23.76,63,2,2.2,TR,1698507544
125,hirara,24.8,125.2833,22.92,78,20,4.63,JP,1698507545
126,mitsamiouli,-11.3847,43.2844,26.46,78,33,4.43,KM,1698507545
127,thames,-37.1333,175.5333,11.93,62,100,5.12,NZ,1698507545
128,kyaikto,17.3,97.0167,24.4,91,100,1.8,MM,1698507546
129,newman,37.3138,-121.0208,7.92,14,63,2.61,US,1698507546
130,plouguerneau,48.6,-4.5,15.21,94,75,9.77,FR,1698507547
131,vylkove,45.4021,29.586,18.34,42,1,2.08,UA,1698507547
132,quillota,-32.8833,-71.2667,16.42,52,100,3.44,CL,1698507548
133,sinop,41.7711,34.8709,16.74,66,90,0.64,TR,1698507548
134,oranjemund,-28.55,16.4333,16.47,67,0,13.17,NA,1698507548
135,taro,-8.3862,115.28,22.0,95,64,0.4,ID,1698507549
136,katsuura,35.1333,140.3,16.98,76,9,4.57,JP,1698507549
137,la ronge,55.1001,-105.2842,-5.88,86,75,2.57,CA,1698507550
138,aleksandrov gay,50.147,48.5704,11.71,99,100,7.24,RU,1698507550
139,shalkar,47.8288,59.6258,10.7,95,96,4.02,KZ,1698507551
140,slave lake,55.2834,-114.769,-1.01,80,100,7.2,CA,1698507551
141,papatowai,-46.5619,169.4708,4.72,91,30,2.91,NZ,1698507551
142,kapa'a,22.0752,-159.319,21.99,77,0,4.12,US,1698507552
143,arno,60.1167,18.6333,2.66,68,91,3.1,SE,1698507552
144,prineville,44.2999,-120.8345,-3.13,86,0,1.54,US,1698507553
145,atbasar,51.8,68.3333,0.29,98,100,6.17,KZ,1698507553
146,lompoc,34.6391,-120.4579,14.77,80,0,9.39,US,1698507554
147,enewetak,11.3474,162.3373,27.91,75,71,3.16,MH,1698507554
148,molteno,-31.3968,26.3625,6.91,77,98,10.69,ZA,1698507555
149,ust-nera,64.5667,143.2,-17.51,99,100,1.47,RU,1698507510
150,north bend,43.4065,-124.2243,4.36,93,0,3.09,US,1698507555
151,cockburn town,21.4612,-71.1419,27.93,73,16,7.73,TC,1698507308
152,port mathurin,-19.6833,63.4167,24.68,78,10,3.89,MU,1698507556
153,harstad,68.799,16.5293,0.66,91,97,3.13,NO,1698507557
154,papao,-17.75,-149.55,23.82,76,100,2.63,PF,1698507557
155,isafjordur,66.0755,-23.124,3.17,87,100,2.6,IS,1698507557
156,masterton,-40.9597,175.6575,2.07,84,13,0.85,NZ,1698507558
157,polyarnyy,69.1989,33.4478,-3.82,86,100,1.71,RU,1698507558
158,ivolginsk,51.7492,107.2837,-3.19,50,25,2.0,RU,1698507559
159,al ghayzah,16.2079,52.176,26.54,68,50,2.91,YE,1698507559
160,levuka,50.1834,-105.4011,-6.1,90,27,4.26,CA,1698507560
161,kiama,-34.6833,150.8667,12.92,77,23,4.94,AU,1698507560
162,sainte-anne-des-monts,49.124,-66.4924,10.93,93,100,1.03,CA,1698507561
163,holualoa,19.6228,-155.9522,21.91,81,0,3.58,US,1698507561
164,mut,36.6439,33.4389,22.26,48,4,1.98,TR,1698507562
165,dakhla,23.6848,-15.958,22.01,78,65,9.26,EH,1698507562
166,bacalar,18.6667,-88.3833,28.06,78,75,0.0,MX,1698507563
167,hermanus,-34.4187,19.2345,14.79,65,85,8.45,ZA,1698507563
168,dhidhdhoo,6.8833,73.1,28.16,75,100,3.31,MV,1698507564
169,marquelia,16.5833,-98.8167,28.23,75,99,1.19,MX,1698507564
170,lihue,21.9789,-159.3672,21.58,77,0,4.12,US,1698507565
171,ust'-ilimsk,58.0006,102.6619,-3.64,56,100,5.36,RU,1698507565
172,malango,-2.9627,119.9001,17.69,65,88,1.16,ID,1698507566
173,ilave,-16.0833,-69.6667,17.0,24,86,2.51,PE,1698507566
174,kayangel,8.0823,134.7173,28.24,71,100,1.21,PW,1698507567
175,port blair,11.6667,92.75,26.02,94,40,1.03,IN,1698507567
176,vuktyl,63.8567,57.3094,-10.5,95,39,0.89,RU,1698507568
177,marsa alam,25.0757,34.8918,28.03,55,98,4.13,EG,1698507568
178,vila velha,-20.3297,-40.2925,29.97,66,40,6.17,BR,1698507569
179,waslala,13.2333,-85.3833,28.7,66,25,1.66,NI,1698507569
180,san antonio de pale,-1.4014,5.6325,26.44,79,9,4.49,GQ,1698507570
181,la passe,45.5549,-0.8967,18.13,69,100,10.64,FR,1698507570
182,manghit,42.1156,60.0597,17.99,41,3,1.09,UZ,1698507571
183,kemijarvi,66.7131,27.4306,-9.72,98,80,0.84,FI,1698507571
184,jaisalmer,26.9147,70.9181,29.77,22,64,3.92,IN,1698507571
185,sao felix do xingu,-6.6447,-51.995,39.76,22,7,2.13,BR,1698507398
186,naze,28.3667,129.4833,18.51,63,4,4.46,JP,1698507572
187,siracusa,37.0881,15.2792,24.77,67,100,2.6,IT,1698507572
188,abilene,32.4487,-99.7331,12.65,93,100,3.09,US,1698507524
189,mili,6.0815,171.735,28.46,73,95,3.54,MH,1698507573
190,bathsheba,13.2167,-59.5167,28.34,89,75,7.2,BB,1698507574
191,krasnyy chikoy,50.3643,108.7512,-3.89,79,87,1.51,RU,1698507574
192,petropavlovsk-kamchatsky,53.0452,158.6483,3.03,59,0,4.0,RU,1698507575
193,guane,22.2025,-84.0875,29.27,56,16,5.42,CU,1698507575
194,ventspils,57.3894,21.5606,3.96,75,75,0.0,LV,1698507576
195,afaahiti,-17.75,-149.2833,22.93,79,100,2.55,PF,1698507576
196,remire-montjoly,4.9167,-52.2667,34.02,55,75,3.09,GF,1698507577
197,zhezqazghan,47.7833,67.7667,5.98,91,100,4.09,KZ,1698507578
198,usinsk,65.9939,57.5281,-12.18,91,30,1.34,RU,1698507579
199,isla mujeres,21.2311,-86.731,29.03,68,9,7.36,MX,1698507579
200,vadso,70.0744,29.7487,-0.91,74,100,5.14,NO,1698507580
201,thunder bay,48.4001,-89.3168,1.99,69,75,2.57,CA,1698507363
202,divnogorsk,55.9594,92.3619,-2.92,76,89,3.93,RU,1698507581
203,wailua homesteads,22.0669,-159.378,21.24,77,0,4.12,US,1698507581
204,santana,-0.0583,-51.1817,34.1,52,40,5.14,BR,1698507581
205,ichinoseki,38.9167,141.1333,12.76,93,98,1.87,JP,1698507582
206,mujiayingzi,42.1167,118.7833,10.78,39,7,3.12,CN,1698507582
207,constantia,44.1833,28.65,21.38,45,49,1.87,RO,1698507583
208,chinde,26.8418,88.0763,14.69,78,50,1.59,NP,1698507583
209,kalmunai,7.4167,81.8167,27.03,76,97,1.18,LK,1698507583
210,avarua,-21.2078,-159.775,21.03,73,20,3.6,CK,1698507584
211,arraial do cabo,-22.9661,-42.0278,26.98,88,75,10.29,BR,1698507584
212,xankandi,39.8177,46.7528,18.61,46,90,2.31,AZ,1698507585
213,bardai,11.65,7.2333,32.09,22,10,1.6,NG,1698507585
214,praya,14.9215,-23.5087,30.3,58,20,8.75,CV,1698507585
215,sosnovo-ozerskoye,52.5249,111.5418,-5.19,40,68,8.23,RU,1698507586
216,darovskoy,58.77,47.9564,-3.58,90,100,4.81,RU,1698507586
217,sinabang,2.4803,96.3801,25.94,86,99,1.12,ID,1698507587
218,east london,-33.0153,27.9116,14.52,94,100,8.75,ZA,1698507587
219,al jawf,29.5,38.75,19.57,73,99,10.87,SA,1698507588
220,shingu,33.7333,135.9833,11.78,78,0,3.31,JP,1698507588
221,hammerfest,70.6634,23.6821,0.25,80,100,1.54,NO,1698507588
222,ketchikan,55.3422,-131.6461,1.99,86,0,2.06,US,1698507589
223,taishan,22.2514,112.7799,23.43,93,96,1.05,CN,1698507589
224,mandera,3.9366,41.867,30.02,58,100,3.1,KE,1698507590
225,timmins,48.4669,-81.3331,-2.1,74,100,5.66,CA,1698507590
226,sterlitamak,53.6246,55.9502,0.23,49,100,3.17,RU,1698507503
227,hamilton,39.1834,-84.5333,16.11,95,100,4.63,US,1698507591
228,acoyapa,11.9703,-85.1711,26.05,75,67,2.86,NI,1698507592
229,altamont,42.2068,-121.7372,-2.23,72,0,0.89,US,1698507592
230,gebeit,21.0667,36.3167,23.05,65,66,7.75,SD,1698507593
231,saint-philippe,-21.3585,55.7679,25.77,86,44,3.57,RE,1698507593
232,fort st. john,56.2499,-120.8529,-7.06,79,75,2.57,CA,1698507315
233,el porvenir,13.7617,-87.3458,24.63,65,9,0.38,HN,1698507594
234,tofol,5.3248,163.0078,28.44,72,38,2.71,FM,1698507594
235,muleba,-1.8397,31.6544,22.57,65,66,1.99,TZ,1698507595
236,mirpur sakro,24.5474,67.6277,27.08,68,21,3.97,PK,1698507595
237,zaozersk,69.4005,32.4476,-5.31,93,100,1.52,RU,1698507596
238,novyy urgal,51.0736,132.5642,-2.4,59,71,0.28,RU,1698507596
239,whitehorse,60.7161,-135.0538,-7.57,92,100,4.63,CA,1698507597
240,pangody,65.85,74.4859,-9.6,96,94,4.46,RU,1698507597
241,bandarbeyla,9.4942,50.8122,26.91,77,100,6.08,SO,1698507598
242,vytegra,61.0064,36.4481,-2.02,89,100,1.79,RU,1698507598
243,tartagal,-22.5164,-63.8013,33.02,40,24,2.93,AR,1698507598
244,alo,7.4178,6.7371,31.24,65,56,1.22,NG,1698507599
245,ballina,-28.8667,153.5667,12.66,76,92,2.37,AU,1698507599
246,lamu,-2.2717,40.902,27.12,84,74,4.11,KE,1698507600
247,mejit,10.2753,170.8646,28.57,73,83,8.0,MH,1698507601
248,geraldton,-28.7667,114.6,16.23,77,0,6.69,AU,1698507601
249,galliano,29.4422,-90.2992,28.0,54,0,2.57,US,1698507602
250,saipan,15.1355,145.701,28.39,89,40,3.09,MP,1698507602
251,swan hill,-35.3378,143.5544,12.08,38,2,1.07,AU,1698507554
252,lae,-6.7221,146.9847,23.63,91,76,2.11,PG,1698507604
253,nemuro,43.3236,145.575,11.61,75,33,1.99,JP,1698507605
254,pisco,-13.7,-76.2167,22.23,83,75,3.6,PE,1698507605
255,sittwe,20.15,92.9,25.79,79,7,3.24,MM,1698507606
256,sandnessjoen,66.0217,12.6316,-1.71,80,78,2.77,NO,1698507606
257,broken hill,-31.95,141.4333,19.03,15,4,3.48,AU,1698507381
258,vorgashor,67.5833,63.95,-12.78,97,100,1.79,RU,1698507607
259,praia da vitoria,38.7333,-27.0667,19.86,63,40,9.68,PT,1698507608
260,al khums,32.6486,14.2619,24.71,67,10,4.81,LY,1698507609
261,suva,-18.1416,178.4415,23.71,94,75,1.03,FJ,1698507609
262,okha,53.5739,142.9478,0.53,93,94,3.86,RU,1698507610
263,khandyga,62.6667,135.6,-15.43,94,84,1.6,RU,1698507610
264,sheridan,44.8333,-106.9173,-4.83,83,100,0.0,US,1698507611
265,embarcacion,-23.209,-64.096,33.45,54,63,1.69,AR,1698507611
266,famagusta,35.125,33.95,26.78,86,0,0.57,CY,1698507612
267,tadine,-21.55,167.8833,22.2,89,3,3.69,NC,1698507612
268,ndele,8.4109,20.6473,26.05,71,68,1.68,CF,1698507613
269,wad medani,14.4012,33.5199,30.53,47,69,6.57,SD,1698507613
270,shanhecun,44.7,127.2,3.11,44,30,2.24,CN,1698507614
271,taloda,21.5667,74.2167,26.03,32,43,2.08,IN,1698507614
272,imbituba,-28.24,-48.6703,22.7,99,100,1.95,BR,1698507546
273,illizi,26.4833,8.4667,35.89,12,0,5.39,DZ,1698507615
274,capao bonito,-24.0058,-48.3494,25.44,82,100,4.04,BR,1698507527
275,palopo,-2.9996,120.1921,24.3,58,60,2.1,ID,1698507616
276,tabou,4.423,-7.3528,27.71,74,22,3.54,CI,1698507616
277,namibe,-15.1961,12.1522,21.93,74,70,4.49,AO,1698507617
278,boquete,8.7833,-82.4333,21.78,68,53,1.13,PA,1698507617
279,st. john's,47.5649,-52.7093,12.6,98,100,8.23,CA,1698507546
280,krasnoslobodsk,48.7072,44.5714,17.9,94,40,9.0,RU,1698507618
281,tobruk,32.0836,23.9764,23.21,76,3,3.68,LY,1698507619
282,hollidaysburg,40.4273,-78.3889,22.6,81,100,3.09,US,1698507619
283,moengo,5.6167,-54.4,37.61,34,42,2.02,SR,1698507620
284,bull savanna,17.8868,-77.5902,29.52,54,12,2.83,JM,1698507620
285,inirida,3.8653,-67.9239,35.04,48,81,0.2,CO,1698507621
286,codrington,-38.2667,141.9667,4.92,92,94,2.84,AU,1698507621
287,yarmouth,41.7057,-70.2286,23.97,71,0,3.6,US,1698507622
288,howard springs,-12.497,131.047,28.95,76,32,2.38,AU,1698507622
289,bogotol,56.2078,89.5342,-4.65,88,100,5.46,RU,1698507623
290,kruisfontein,-34.0033,24.7314,12.0,73,100,8.35,ZA,1698507623
291,es castell,39.8795,4.2854,22.38,60,20,7.72,ES,1698507624
292,novospasskoye,53.1468,47.7514,3.31,99,100,5.62,RU,1698507624
293,onega,63.9061,38.1404,-3.62,91,100,4.22,RU,1698507625
294,alice springs,-23.7,133.8833,12.75,14,54,0.0,AU,1698507625
295,ponta delgada,37.7333,-25.6667,19.55,77,40,7.72,PT,1698507625
296,zajecar,43.9036,22.2641,20.24,66,65,1.35,RS,1698507626
297,la carlota,10.4233,122.9208,25.52,83,2,2.18,PH,1698507626
298,conde,-7.2597,-34.9075,29.7,58,75,7.72,BR,1698507533
299,talnakh,69.4865,88.3972,-16.55,92,81,0.8,RU,1698507627
300,kingston,17.997,-76.7936,32.91,64,40,2.57,JM,1698507500
301,salahonda,2.1019,-78.7217,23.79,94,100,5.55,CO,1698507628
302,acapulco de juarez,16.8634,-99.8901,28.67,74,100,1.97,MX,1698507629
303,bodaybo,57.8506,114.1933,-3.84,63,100,3.19,RU,1698507629
304,nouadhibou,20.931,-17.0347,25.99,61,0,6.69,MR,1698507629
305,vilyuchinsk,52.9306,158.4028,3.85,74,100,2.15,RU,1698507630
306,magadan,59.5667,150.8,-2.78,76,92,2.94,RU,1698507630
307,port saint john's,-31.6229,29.5448,15.7,90,100,6.69,ZA,1698507631
308,korla,41.7597,86.1469,14.26,32,5,2.99,CN,1698507631
309,jinchang,38.4953,102.1739,10.75,30,8,1.12,CN,1698507631
310,basco,20.4487,121.9702,26.33,79,22,5.64,PH,1698507632
311,severnoye,56.3491,78.3619,-6.12,87,14,1.79,RU,1698507632
312,viedma,-40.8135,-62.9967,24.85,17,100,11.53,AR,1698507633
313,gisborne,-38.6533,178.0042,8.98,69,93,1.33,NZ,1698507633
314,ar rahad,12.7167,30.65,28.25,55,74,4.02,SD,1698507634
315,westport,41.1415,-73.3579,26.36,63,0,2.68,US,1698507634
316,sabang,5.8933,95.3214,27.71,73,94,1.69,ID,1698507635
317,kristiansund,63.1115,7.732,2.03,64,0,0.0,NO,1698507635
318,zhalantun,48.0,122.7167,3.97,45,94,2.62,CN,1698507636
319,toliara,-23.35,43.6667,25.22,73,0,2.88,MG,1698507636
320,san luis,-33.295,-66.3356,26.94,36,38,10.11,AR,1698507636
321,neyriz,29.1988,54.3278,19.32,31,0,1.81,IR,1698507637
322,tejen,37.3834,60.5054,25.29,25,100,4.07,TM,1698507637
323,port douglas,-16.4833,145.4667,23.5,72,71,5.48,AU,1698507638
324,maceio,-9.6658,-35.7353,30.69,58,75,7.72,BR,1698507397
325,ambon,-3.6954,128.1814,25.49,95,20,4.63,ID,1698507639
326,kulhudhuffushi,6.6221,73.07,28.09,76,90,3.4,MV,1698507639
327,pangai,-19.8,-174.35,23.93,81,65,8.66,TO,1698507640
328,lloydminster,53.2835,-110.0016,-5.88,93,100,4.12,CA,1698507640
329,merizo village,13.2658,144.6691,28.85,95,100,5.52,GU,1698507640
330,mumbwa,-14.9783,27.0619,31.7,19,87,1.16,ZM,1698507641
331,sarankhola,22.3082,89.7897,22.88,67,19,1.15,BD,1698507642
332,selfoss,63.9331,-20.9971,6.14,68,97,3.48,IS,1698507642
333,lautoka,-17.6167,177.4667,22.92,88,20,1.03,FJ,1698507643
334,puerto ayacucho,5.6639,-67.6236,32.28,59,100,2.21,VE,1698507643
335,ancud,-41.8697,-73.8203,8.52,74,97,11.98,CL,1698507643
336,ustyuzhna,58.8394,36.4321,-1.23,96,100,2.43,RU,1698507644
337,zafar,40.9833,68.9,21.75,37,100,1.71,UZ,1698507644
338,moyynkum,44.2914,72.9469,15.44,55,100,1.24,KZ,1698507645
339,caraballeda,10.6112,-66.8522,32.98,62,40,1.54,VE,1698507645
340,kantemirovka,49.7089,39.8592,12.92,60,16,12.71,RU,1698507646
341,honolulu,21.3069,-157.8583,22.93,85,0,2.57,US,1698507429
342,greenville,35.6127,-77.3663,26.01,62,0,2.57,US,1698507495
343,baotou,40.6522,109.8222,12.3,27,10,1.59,CN,1698507647
344,rongelap,11.1635,166.8941,28.21,77,64,5.13,MH,1698507648
345,marka,1.7159,44.7717,27.21,79,25,4.54,SO,1698507648
346,clinton,42.587,-82.9199,13.27,78,75,6.69,US,1698507648
347,mayna,54.1135,47.6231,-0.45,99,100,5.6,RU,1698507649
348,marsh harbour,26.5412,-77.0636,26.14,64,0,9.96,BS,1698507649
349,acajutla,13.5928,-89.8275,29.7,63,80,3.59,SV,1698507650
350,zhanaozen,43.3,52.8,20.51,43,100,2.9,KZ,1698507650
351,eyl,7.9803,49.8164,27.33,76,99,7.35,SO,1698507651
352,kyzyl-suu,42.3414,78.0056,8.26,57,10,2.47,KG,1698507651
353,encruzilhada do sul,-30.5439,-52.5219,20.45,87,100,3.31,BR,1698507494
354,revelstoke,50.9832,-118.2023,-3.99,86,100,0.0,CA,1698507472
355,lauro de freitas,-12.8944,-38.3272,30.01,66,40,8.23,BR,1698507652
356,rocky mountain house,52.3668,-114.9188,-3.94,68,100,2.57,CA,1698507653
357,mangrol,21.1167,70.1167,27.59,66,99,0.84,IN,1698507653
358,murom,55.5656,42.0417,1.14,99,100,5.59,RU,1698507653
359,palma soriano,20.2172,-75.9989,29.48,41,0,3.52,CU,1698507654
360,vilyuysk,63.7553,121.6247,-2.78,95,100,1.79,RU,1698507654
361,keflavik,64.0049,-22.5624,7.95,61,0,0.0,IS,1698507654
362,fisterra,42.9049,-9.2629,16.12,85,100,11.68,ES,1698507655
363,baoqing,46.3317,132.2111,2.16,43,18,1.8,CN,1698507656
364,isangel,-19.55,169.2667,23.5,88,52,3.87,VU,1698507656
365,kapuskasing,49.4169,-82.4331,-2.95,80,100,6.17,CA,1698507657
366,villa angela,-27.5738,-60.7153,34.62,34,22,4.1,AR,1698507657
367,mandalgovi,45.7625,106.2708,2.69,58,7,9.8,MN,1698507657
368,aguilares,-27.4338,-65.6143,31.76,42,0,2.54,AR,1698507658
369,lebu,-37.6167,-73.65,12.26,88,100,10.15,CL,1698507658
370,muisne,0.6,-80.0333,26.2,77,98,3.85,EC,1698507659
371,amboise,47.4125,0.9827,14.3,87,100,5.14,FR,1698507659
372,new norfolk,-42.7826,147.0587,11.07,71,63,3.23,AU,1698507659
373,kirgiz-miyaki,53.6324,54.7979,0.87,93,100,4.25,RU,1698507660
374,fortuna,40.5982,-124.1573,3.51,100,75,4.12,US,1698507594
375,palo santo,-25.5633,-59.3378,26.44,83,91,2.87,AR,1698507661
376,khvalynsk,52.4906,48.1058,5.97,98,100,5.09,RU,1698507662
377,kosh-agach,50.0,88.6667,-4.83,39,29,0.89,RU,1698507662
378,mineiros,-17.5694,-52.5511,35.2,31,32,5.95,BR,1698507484
379,aioun,16.6614,-9.6149,38.49,11,14,3.35,MR,1698507663
380,la sarre,48.8002,-79.1996,-0.32,69,99,5.87,CA,1698507664
381,fale old settlement,-9.3852,-171.2468,27.75,76,43,2.79,TK,1698507664
382,malungun,6.2792,125.2817,23.91,93,99,0.42,PH,1698507664
383,fontanelas,38.8472,-9.4372,21.2,84,20,5.66,PT,1698507665
384,flin flon,54.7682,-101.865,-6.09,93,75,2.57,CA,1698507665
385,vavoua,7.3819,-6.4778,30.63,54,38,2.16,CI,1698507666
386,san patricio,28.017,-97.5169,30.49,64,8,6.09,US,1698507666
387,tikapur,28.5,81.1333,20.05,57,98,1.82,NP,1698507667
388,ujae,8.9322,165.7642,28.55,75,13,4.95,MH,1698507667
389,alofi,-19.0595,-169.9187,22.94,73,77,5.14,NU,1698507668
390,coihueco,-36.6167,-71.8333,12.01,93,100,9.26,CL,1698507668
391,kotovo,50.3211,44.8012,14.49,84,83,8.32,RU,1698507669
392,pionerskiy,54.9508,20.2275,3.97,82,100,2.71,RU,1698507669
393,jiazi,22.8779,116.067,23.16,82,99,6.19,CN,1698507670
394,port macquarie,-31.4333,152.9167,12.16,87,66,2.39,AU,1698507670
395,manokwari,-0.8667,134.0833,25.37,84,100,2.24,ID,1698507671
396,mizan teferi,6.9833,35.5833,15.16,98,100,0.29,ET,1698507671
397,trinidad,-14.8333,-64.9,29.99,66,75,7.2,BO,1698507672
398,pangkalpinang,-2.1333,106.1333,26.72,77,65,2.47,ID,1698507672
399,selkirk,50.1436,-96.8845,-5.46,83,47,1.79,CA,1698507673
400,ixtapa,20.7,-105.2,30.13,83,75,0.89,MX,1698507655
401,zhanibek,49.4167,46.85,15.37,79,89,9.46,KZ,1698507673
402,niquelandia,-14.4739,-48.4597,34.12,34,71,1.84,BR,1698507674
403,valparaiso,-33.0393,-71.6273,17.22,70,75,3.6,CL,1698507674
404,queenstown,-31.8976,26.8753,9.79,72,100,4.26,ZA,1698507449
405,ndelele,4.0333,14.9333,25.52,78,32,1.02,CM,1698507675
406,moss vale,-34.55,150.3833,8.34,95,54,1.64,AU,1698507676
407,red oak,32.5176,-96.8044,17.47,95,100,3.09,US,1698507676
408,puerto cabezas,14.0351,-83.3888,29.98,84,75,4.12,NI,1698507677
409,boguchany,58.3814,97.4531,-4.52,63,100,4.92,RU,1698507677
410,ouricuri,-7.8825,-40.0817,37.83,15,90,4.38,BR,1698507677
411,arawa,-6.2132,155.5367,24.43,91,20,1.25,PG,1698507678
412,luderitz,-26.6481,15.1594,22.35,42,0,15.42,NA,1698507678
413,necochea,-38.5473,-58.7368,25.57,35,62,3.62,AR,1698507679
414,tarko-sale,64.9225,77.785,-8.16,91,99,6.01,RU,1698507679
415,wanxian,30.8039,108.3897,17.34,82,16,0.57,CN,1698507680
416,callao,-12.0667,-77.15,25.4,78,75,4.63,PE,1698507680
417,rancho mirage,33.7397,-116.4128,20.53,53,0,4.02,US,1698507680
418,fort mcmurray,56.7268,-111.381,-6.23,86,100,3.09,CA,1698507409
419,klyuchi,52.2667,79.1667,-1.32,53,100,3.42,RU,1698507681
420,takoradi,4.8845,-1.7554,27.98,72,25,3.37,GH,1698507682
421,zonguldak,41.25,31.8333,16.27,69,3,1.14,TR,1698507682
422,kirensk,57.7853,108.1119,-3.91,51,42,3.58,RU,1698507683
423,saynshand,44.8824,110.1163,9.59,27,28,2.53,MN,1698507683
424,awjilah,29.1081,21.2869,27.59,28,24,4.08,LY,1698507684
425,nagqu,31.5,92.0,-3.88,58,80,1.64,CN,1698507684
426,eastham,41.8301,-69.9739,23.98,61,0,2.06,US,1698507684
427,aasiaat,68.7098,-52.8699,-6.33,90,97,4.73,GL,1698507685
428,weno,7.4515,151.8468,25.97,100,100,0.0,FM,1698507685
429,spirit lake,43.4222,-95.1022,-2.07,70,100,4.02,US,1698507686
430,molchanovo,57.5817,83.7692,-5.29,89,100,2.28,RU,1698507686
431,merritt island,28.5392,-80.672,29.49,63,40,4.12,US,1698507686
432,tashtagol,52.7657,87.8894,-3.04,57,9,0.89,RU,1698507687
433,kanggye,40.9695,126.5852,5.35,61,2,1.49,KP,1698507687
434,lodwar,3.1191,35.5973,27.1,63,79,8.39,KE,1698507688
435,sorgun,39.8101,35.186,17.15,36,50,2.01,TR,1698507688
436,okeho,8.0333,3.35,27.75,64,66,1.55,NG,1698507688
437,alta,69.9689,23.2717,-5.41,81,0,2.57,NO,1698507689
438,cayon,17.35,-62.7333,26.74,100,75,0.0,KN,1698507689
439,nova vicosa,-17.8919,-39.3719,27.42,70,99,4.26,BR,1698507690
440,rabo de peixe,37.8,-25.5833,18.88,99,40,7.72,PT,1698507690
441,smithers,54.7804,-127.1743,-11.82,92,0,1.54,CA,1698507691
442,hanceville,34.0607,-86.7675,24.75,51,2,2.02,US,1698507691
443,saldanha,-33.0117,17.9442,19.03,63,0,14.71,ZA,1698507692
444,astrakhan,46.3497,48.0408,14.95,100,100,4.02,RU,1698507692
445,wakkanai,45.4094,141.6739,7.27,77,8,1.79,JP,1698507693
446,veinticinco de mayo,-35.4323,-60.1727,27.21,49,0,3.13,AR,1698507693
447,bail-hongal,15.8167,74.8667,25.04,48,88,1.16,IN,1698507693
448,mar del plata,-38.0023,-57.5575,26.96,36,0,7.2,AR,1698507503
449,moranbah,-22.0016,148.0466,17.08,79,4,4.3,AU,1698507695
450,santa lucia,27.9117,-15.5407,19.87,78,75,2.57,ES,1698507695
451,benghazi,32.1167,20.0667,24.85,64,65,2.09,LY,1698507696
452,gamboma,-1.8764,15.8644,28.96,64,62,1.11,CG,1698507696
453,kandyagash,49.4744,57.4233,6.87,100,100,2.37,KZ,1698507697
454,walvis bay,-22.9575,14.5053,21.53,52,8,6.69,NA,1698507697
455,yankton,42.8711,-97.3973,-3.82,86,100,3.09,US,1698507697
456,bonny,4.4522,7.1681,28.48,71,4,4.47,NG,1698507698
457,ati,13.2154,18.3353,36.91,16,4,4.24,TD,1698507698
458,ceerigaabo,10.6162,47.368,20.01,62,99,5.37,SO,1698507699
459,plyeshchanitsy,54.4222,27.8331,1.64,92,100,3.66,BY,1698507699
460,almeirim,-1.5233,-52.5817,35.76,36,18,2.39,BR,1698507700
461,antsiranana,-12.2787,49.2917,27.42,69,40,3.09,MG,1698507700
462,chaykovskiy,56.7686,54.1148,-4.01,95,98,3.38,RU,1698507700
463,adelaide,-34.9333,138.6,11.85,72,9,1.79,AU,1698507480
464,quellon,-43.1167,-73.6167,8.91,72,81,9.74,CL,1698507701
465,at taj,24.2049,23.2857,27.64,18,43,3.85,LY,1698507702
466,slobodskoy,58.7322,50.1772,-2.97,65,94,4.45,RU,1698507702
467,kerikeri,-35.2268,173.9474,12.73,90,100,1.34,NZ,1698507703
468,new ross,52.3967,-6.9367,12.88,1,100,3.95,IE,1698507703
469,dryden,49.7833,-92.7503,-2.84,86,100,6.17,CA,1698507703
470,sechura,-5.5569,-80.8222,23.87,67,92,4.33,PE,1698507704
471,ulsteinvik,62.3432,5.8487,3.93,72,0,2.24,NO,1698507704
472,taber,49.8167,-112.1518,-8.0,73,90,5.14,CA,1698507705
473,sitka,57.0531,-135.33,5.94,81,100,0.0,US,1698507705
474,salinopolis,-0.6136,-47.3561,30.55,64,5,6.78,BR,1698507495
475,qarqaraly,49.4058,75.4742,-0.47,58,100,4.92,KZ,1698507706
476,rundu,-17.9333,19.7667,36.4,14,63,0.21,NA,1698507706
477,sao jose da coroa grande,-8.8978,-35.1478,28.23,60,91,6.39,BR,1698507707
478,apiai,-24.5094,-48.8425,22.27,83,99,4.02,BR,1698507707
479,de aar,-30.6497,24.0123,12.87,46,100,12.68,ZA,1698507708
480,slatina,44.4333,24.3667,19.17,44,36,5.72,RO,1698507708
481,orcopampa,-15.2661,-72.3417,14.68,41,56,1.99,PE,1698507709
482,mandapam,9.2833,79.1167,28.5,75,100,5.2,IN,1698507709
483,souillac,-20.5167,57.5167,24.21,94,75,0.0,MU,1698507710
484,sungai penuh,-2.0833,101.3833,18.25,83,26,1.44,ID,1698507710
485,nova sintra,14.8667,-24.7167,24.11,77,49,8.92,CV,1698507710
486,acaponeta,22.4964,-105.3594,28.09,71,33,0.79,MX,1698507711
487,aksu,41.1231,80.2644,14.12,28,2,1.42,CN,1698507711
488,zouerate,22.7187,-12.4521,33.75,18,0,2.1,MR,1698507712
489,isale,6.6979,3.1421,30.87,63,69,2.91,NG,1698507712
490,sokode,8.9833,1.1333,32.84,55,75,3.09,TG,1698507712
491,yeniseysk,58.4497,92.1703,-2.81,70,100,6.26,RU,1698507713
492,vrbas,45.5714,19.6408,17.3,60,0,2.31,RS,1698507713
493,klaksvik,62.2266,-6.589,7.51,74,100,12.32,FO,1698507714
494,haiku-pauwela,20.9219,-156.3051,24.47,82,100,2.24,US,1698507715
495,padang,-0.9492,100.3543,27.03,89,32,1.94,ID,1698507495
496,totness,5.8833,-56.3167,32.41,58,88,3.6,SR,1698507716
497,pachino,36.7186,15.0907,22.97,70,97,6.47,IT,1698507716
498,as sulayyil,20.4607,45.5779,30.14,36,100,4.67,SA,1698507717
499,hotan,37.0997,79.9269,15.93,19,82,1.8,CN,1698507718
500,lovington,32.944,-103.3485,11.47,99,100,1.34,US,1698507718
501,visby,57.6409,18.296,4.34,70,100,3.6,SE,1698507719
502,verde village,34.7105,-112.0115,19.47,56,0,0.45,US,1698507719
503,nenjiang,49.1833,125.2167,3.76,41,87,4.05,CN,1698507720
504,taoudenni,22.6783,-3.9836,39.07,7,0,2.37,ML,1698507720
505,lastoursville,-0.8143,12.7287,26.96,78,95,0.5,GA,1698507721
506,khovd,48.0056,91.6419,-1.64,51,86,1.21,MN,1698507722
507,argo,37.6333,22.7333,25.44,66,0,0.73,GR,1698507722
508,cherokee,34.2668,-84.4499,24.19,66,0,1.54,US,1698507461
509,kristinehamn,59.3098,14.1081,0.31,75,48,2.26,SE,1698507723
510,barghat,22.0333,79.7167,19.28,50,0,1.57,IN,1698507724
511,letlhakeng,-24.0944,25.0298,24.4,39,87,5.51,BW,1698507724
512,box elder,41.5005,-112.8764,2.09,55,0,7.29,US,1698507725
513,kolonia town,6.964,158.206,25.0,94,100,2.06,FM,1698507725
514,amla,21.9333,78.1167,18.95,44,4,1.58,IN,1698507726
515,bonthe,7.5264,-12.505,29.18,67,55,4.04,SL,1698507726
516,ambovombe,-25.1667,46.0833,24.29,77,0,6.82,MG,1698507727
517,bambanglipuro,-7.95,110.2833,25.49,83,52,2.22,ID,1698507727
518,ola,59.5833,151.2833,-1.79,69,82,3.0,RU,1698507728
519,taixing,32.1667,120.0136,15.8,68,24,2.95,CN,1698507728
520,brad,46.1333,22.7833,12.51,75,5,0.83,RO,1698507729
521,bwizibwera,-0.5917,30.6286,18.47,89,66,1.83,UG,1698507729
522,aswan,24.0934,32.907,36.61,20,0,3.6,EG,1698507730
523,courtenay,49.6866,-124.9936,5.96,77,20,2.57,CA,1698507730
524,fort bragg,35.139,-79.006,26.01,58,0,5.14,US,1698507731
525,el calafate,-50.3408,-72.2768,4.48,75,99,3.55,AR,1698507731
526,portland,45.5234,-122.6762,5.09,76,0,4.47,US,1698507150
527,geneva,41.8875,-88.3054,7.83,69,75,5.66,US,1698507609
528,pamandzi,-12.7967,45.2794,27.88,78,0,2.57,YT,1698507733
529,nacala,-14.5428,40.6728,26.14,85,1,4.44,MZ,1698507733
530,agat village,13.3886,144.6585,29.06,91,75,2.06,GU,1698507734
531,mussomeli,37.5778,13.7513,19.93,61,47,3.16,IT,1698507734
532,ostersund,63.1792,14.6357,-1.33,80,100,3.09,SE,1698507734
533,beijing,39.9075,116.3972,9.94,51,1,1.65,CN,1698507640
534,nabire,-3.3667,135.4833,24.71,91,100,1.79,ID,1698507735
535,saint-francois,46.4154,3.9054,17.03,60,0,5.14,FR,1698507736
536,turan,16.0678,108.2208,26.99,89,20,0.51,VN,1698507736
537,sitarganj,28.9333,79.7,20.08,54,100,1.64,IN,1698507737
538,tenno,39.9,139.9667,14.84,80,100,3.35,JP,1698507737
539,kenora,49.8167,-94.4337,-2.46,86,75,5.14,CA,1698507738
540,maua,-23.6678,-46.4614,31.31,64,88,6.61,BR,1698507547
541,oppdal,62.5943,9.6912,-6.32,70,1,2.64,NO,1698507739
542,nuuk,64.1835,-51.7216,-0.66,64,3,0.0,GL,1698507739
543,la almunia de dona godina,41.4767,-1.3745,21.23,58,99,9.73,ES,1698507740
544,gulf shores,30.246,-87.7008,26.18,73,0,3.09,US,1698507741
545,buka,40.8108,69.1986,21.79,35,100,3.09,UZ,1698507741
546,prince george,53.9166,-122.753,-14.31,85,0,1.54,CA,1698507696
547,uttarkashi,30.7333,78.45,15.36,56,66,2.39,IN,1698507742
548,igrim,63.1906,64.4162,-8.08,79,1,0.44,RU,1698507742
549,werota,11.9167,37.7,18.47,78,99,1.42,ET,1698507743
550,wickenburg,33.9686,-112.7296,19.75,41,0,2.31,US,1698507457
551,salalah,17.0151,54.0924,28.05,74,0,1.54,OM,1698507744
552,cafayate,-26.073,-65.9761,26.1,8,0,3.3,AR,1698507744
553,kailua-kona,19.6406,-155.9956,23.98,83,0,3.58,US,1698507744
554,okanagan,50.3639,-119.35,-5.49,71,3,0.29,CA,1698507745
555,vallenar,-28.5708,-70.7581,22.55,22,0,3.56,CL,1698507746
556,miles city,46.4083,-105.8406,-16.46,92,0,1.54,US,1698507746
557,bennington,42.8781,-73.1968,22.5,75,75,2.57,US,1698507747
558,smolensk,55.0,33.0,1.01,94,100,3.57,RU,1698507748
559,pacific grove,36.6177,-121.9166,10.91,86,0,1.79,US,1698507748
560,forster,-32.1667,152.5167,10.16,100,71,2.56,AU,1698507749
561,peace river,56.2501,-117.286,0.17,83,75,7.72,CA,1698507487
562,nassau,40.7507,-73.5829,25.65,66,0,2.24,US,1698507749
